 [
      {
        "AddressNo": 263,
        "Code": "Q1 135",
        "Lat": 10.763567,
        "Lng": 106.691612,
        "Name": "Bệnh Viện Răng Hàm Mặt",
        "Routes": "01, 139, 152",
        "Search": "BVRHM 263 THD",
        "Status": "Đang khai thác",
        "StopId": 24,
        "StopType": "Nhà chờ",
        "Street": "Trần Hưng Đạo",
        "SupportDisability": "",
        "Ward": "Phường Cô Giang",
        "Zone": "Quận 1"
      },
      {
        "AddressNo": "227 - 229 (255)",
        "Code": "Q1 136",
        "Lat": 10.76483,
        "Lng": 106.692722,
        "Name": "Rạp Trần Hưng Đạo",
        "Routes": "01, 139, 152, 45, 53, 56",
        "Search": "RTHD 227-229( THD",
        "Status": "Đang khai thác",
        "StopId": 25,
        "StopType": "Nhà chờ",
        "Street": "Trần Hưng Đạo",
        "SupportDisability": "",
        "Ward": "Phường Cô Giang",
        "Zone": "Quận 1"
      },
      {
        "AddressNo": "135/40 (135)",
        "Code": "Q1 137",
        "Lat": 10.767064,
        "Lng": 106.694824,
        "Name": "KTX Trần Hưng Đạo",
        "Routes": "01, 139, 152, 45, 53, 56, 88",
        "Search": "KTHD 135/40( THD",
        "Status": "Đang khai thác",
        "StopId": 26,
        "StopType": "Nhà chờ",
        "Street": "Trần Hưng Đạo",
        "SupportDisability": "",
        "Ward": "",
        "Zone": "Quận 1"
      },
      {
        "AddressNo": "71C",
        "Code": "Q1 138",
        "Lat": 10.768327,
        "Lng": 106.695847,
        "Name": "Nguyễn Kim",
        "Routes": "01, 152, 31, 38, 45, 53, 56, 61-6, 75, 86, 88",
        "Search": "NK 71C THD",
        "Status": "Đang khai thác",
        "StopId": 27,
        "StopType": "Nhà chờ",
        "Street": "Trần Hưng Đạo",
        "SupportDisability": "",
        "Ward": "",
        "Zone": "Quận 1"
      },
      {
        "AddressNo": "Hàm Nghi 9 (129-133)",
        "Code": "Q1 016",
        "Lat": 10.770822,
        "Lng": 106.700233,
        "Name": "Trạm Trung chuyển trên đường Hàm Nghi",
        "Routes": "75, D4, DL01",
        "Search": "TTctdHN HN9( HN",
        "Status": "Đang khai thác",
        "StopId": 28,
        "StopType": "Nhà chờ",
        "Street": "Hàm Nghi",
        "SupportDisability": "",
        "Ward": "Phường Nguyễn Thái Bình",
        "Zone": "Quận 1"
      },
      {
        "AddressNo": "Hàm nghi 1",
        "Code": "Q1 015",
        "Lat": 10.771001,
        "Lng": 106.700356,
        "Name": "Trạm Trung chuyển trên đường Hàm Nghi",
        "Routes": "109, 152, 52, 93",
        "Search": "TTctdHN Hn1 HN",
        "Status": "Đang khai thác",
        "StopId": 30,
        "StopType": "Nhà chờ",
        "Street": "Hàm Nghi",
        "SupportDisability": "",
        "Ward": "Phường Nguyễn Thái Bình",
        "Zone": "Quận 1"
      },
      {
        "AddressNo": "Bến thủy nội địa Thủ Thiêm",
        "Code": "Q1 024",
        "Lat": 10.774094,
        "Lng": 106.706654,
        "Name": "Bến Bạch Đằng",
        "Routes": "01, 03, 19, 45, 53, 56, 61-6, 88, DL01, DL02",
        "Search": "BBD BtndTT TDT",
        "Status": "Đang khai thác",
        "StopId": 31,
        "StopType": "Nhà chờ",
        "Street": "Tôn Đức Thắng",
        "SupportDisability": "",
        "Ward": "",
        "Zone": "Quận 1"
      },
      {
        "AddressNo": 67,
        "Code": "Q1 017",
        "Lat": 10.770722,
        "Lng": 106.704074,
        "Name": "Hồ Tùng Mậu",
        "Routes": "01, 03, 19, 20, 45, 56, 61-6, 75, 88, DL01",
        "Search": "HTM 67 HN",
        "Status": "Đang khai thác",
        "StopId": 32,
        "StopType": "Nhà chờ",
        "Street": "Hàm Nghi",
        "SupportDisability": "",
        "Ward": "Phường Nguyễn Thái Bình",
        "Zone": "Quận 1"
      },
      {
        "AddressNo": "Công trường Mê Linh",
        "Code": "BX 06",
        "Lat": 10.77679,
        "Lng": 106.705856,
        "Name": "Công Trường Mê Linh",
        "Routes": 1,
        "Search": "CTML CtML TS",
        "Status": "Đang khai thác",
        "StopId": 33,
        "StopType": "Bến xe",
        "Street": "Thi Sách",
        "SupportDisability": "",
        "Ward": "",
        "Zone": "Quận 1"
      },
      {
        "AddressNo": 2,
        "Code": "Q1 057",
        "Lat": 10.775997,
        "Lng": 106.705822,
        "Name": "Công Trường Mê Linh",
        "Routes": "01, 03, 19, 45",
        "Search": "CTML 2 HBT",
        "Status": "Đang khai thác",
        "StopId": 34,
        "StopType": "Nhà chờ",
        "Street": "Hai Bà Trưng",
        "SupportDisability": "",
        "Ward": "",
        "Zone": "Quận 1"
      },
      {
        "AddressNo": "BẾN XE BUÝT SÀI GÒN",
        "Code": "BX 01",
        "Lat": 10.767676,
        "Lng": 106.689362,
        "Name": "Bến xe buýt Sài Gòn",
        "Routes": "03, 04, 102, 109, 13, 140, 18, 19, 20, 27, 28, 34, 36, 39, 52, 61-6, 65, 69, 70-3, 72, 75, 86, 88, 93, D4",
        "Search": "BxbSG BXBSG LL",
        "Status": "Đang khai thác",
        "StopId": 35,
        "StopType": "Bến xe",
        "Street": "Lê Lai",
        "SupportDisability": "Có",
        "Ward": "Phường Phạm Ngũ Lão",
        "Zone": "Quận 1"
      },
      {
        "AddressNo": 86,
        "Code": "Q1 060",
        "Lat": 10.780645,
        "Lng": 106.700673,
        "Name": "Bưu Điện Thành Phố",
        "Routes": "03, 19, 45",
        "Search": "BDTP 86 HBT",
        "Status": "Đang khai thác",
        "StopId": 39,
        "StopType": "Trụ dừng",
        "Street": "Hai Bà Trưng",
        "SupportDisability": "",
        "Ward": "",
        "Zone": "Quận 1"
      },
      {
        "AddressNo": "74/A2-74/A4",
        "Code": "Q1 058",
        "Lat": 10.778031,
        "Lng": 106.703559,
        "Name": "Nhà Hát Thành Phố",
        "Routes": "03, 19, 45",
        "Search": "NHTP 74/A2-74/A4 HBT",
        "Status": "Đang khai thác",
        "StopId": 42,
        "StopType": "Ô sơn",
        "Street": "Hai Bà Trưng",
        "SupportDisability": "",
        "Ward": "",
        "Zone": "Quận 1"
      },
      {
        "AddressNo": "Đối diện 115Ter",
        "Code": "Q1 059",
        "Lat": 10.779881,
        "Lng": 106.701536,
        "Name": "Bệnh viện Nhi Đồng 2",
        "Routes": "03, 19, 45",
        "Search": "BvND2 Dd115Ter HBT",
        "Status": "Đang khai thác",
        "StopId": 44,
        "StopType": "Nhà chờ",
        "Street": "Hai Bà Trưng",
        "SupportDisability": "",
        "Ward": "",
        "Zone": "Quận 1"
      },
      {
        "AddressNo": "2-4",
        "Code": "Q1 020",
        "Lat": 10.770885,
        "Lng": 106.705549,
        "Name": "Cục Hải Quan Thành Phố",
        "Routes": "01, 03, 123, 124, 19, 45, 56, 61-6, 88",
        "Search": "CHQTP 2-4 HN",
        "Status": "Đang khai thác",
        "StopId": 76,
        "StopType": "Nhà chờ",
        "Street": "Hàm Nghi",
        "SupportDisability": "",
        "Ward": "Phường Bến Nghé",
        "Zone": "Quận 1"
      },
      {
        "AddressNo": "Hàm nghi 2",
        "Code": "Q1 021",
        "Lat": 10.771017,
        "Lng": 106.699954,
        "Name": "Trạm Trung chuyển trên đường Hàm Nghi",
        "Routes": "34, 38, 39, 45, 75",
        "Search": "TTctdHN Hn2 HN",
        "Status": "Đang khai thác",
        "StopId": 78,
        "StopType": "Nhà chờ",
        "Street": "Hàm Nghi",
        "SupportDisability": "",
        "Ward": "Phường Bến Thành",
        "Zone": "Quận 1"
      },
      {
        "AddressNo": 21,
        "Code": "Q1 031",
        "Lat": 10.773299,
        "Lng": 106.706359,
        "Name": "Bến Bạch Đằng",
        "Routes": "01, 03, 19, 45, 53, 56, 61-6, 88, DL01",
        "Search": "BBD 21 TDT",
        "Status": "Đang khai thác",
        "StopId": 79,
        "StopType": "Trụ dừng",
        "Street": "Tôn Đức Thắng",
        "SupportDisability": "",
        "Ward": "",
        "Zone": "Quận 1"
      },
      {
        "AddressNo": "Hàm Nghi 10 (134)",
        "Code": "Q1 022",
        "Lat": 10.771222,
        "Lng": 106.700082,
        "Name": "Trạm Trung chuyển trên đường Hàm Nghi",
        "Routes": "52, 93",
        "Search": "TTctdHN HN10( HN",
        "Status": "Đang khai thác",
        "StopId": 80,
        "StopType": "Nhà chờ",
        "Street": "Hàm Nghi",
        "SupportDisability": "",
        "Ward": "Phường Bến Thành",
        "Zone": "Quận 1"
      },
      {
        "AddressNo": "Hàm Nghi 16 (140)",
        "Code": "Q1 023",
        "Lat": 10.771243,
        "Lng": 106.699326,
        "Name": "Trạm Trung chuyển trên đường Hàm Nghi",
        "Routes": "04, 18, 20",
        "Search": "TTctdHN HN16( HN",
        "Status": "Đang khai thác",
        "StopId": 82,
        "StopType": "Nhà chờ",
        "Street": "Hàm Nghi",
        "SupportDisability": "",
        "Ward": "Phường Bến Thành",
        "Zone": "Quận 1"
      },
      {
        "AddressNo": "Đối diện 103",
        "Code": "Q1 044",
        "Lat": 10.769773,
        "Lng": 106.695839,
        "Name": "Trường Ernst Thalmann",
        "Routes": "",
        "Search": "TET Dd103 PNL",
        "Status": "Đã hủy",
        "StopId": 83,
        "StopType": "Nhà chờ",
        "Street": "Phạm Ngũ Lão",
        "SupportDisability": "",
        "Ward": "",
        "Zone": "Quận 1"
      },
      {
        "AddressNo": "Đối diện số 26",
        "Code": "Q1 123",
        "Lat": 10.770901,
        "Lng": 106.693833,
        "Name": "Ngã sáu Phù Đổng",
        "Routes": "28, 46, 69",
        "Search": "NsPD Dds26 NTN",
        "Status": "Đang khai thác",
        "StopId": 84,
        "StopType": "Nhà chờ",
        "Street": "Nguyễn Thị Nghĩa",
        "SupportDisability": "",
        "Ward": "Phường Bến Thành",
        "Zone": "Quận 1"
      },
      {
        "AddressNo": 22,
        "Code": "Q1 145",
        "Lat": 10.77097,
        "Lng": 106.69268,
        "Name": "Nguyễn Trãi",
        "Routes": "28, 46, 65",
        "Search": "NT 22 NT",
        "Status": "Đang khai thác",
        "StopId": 85,
        "StopType": "Trụ dừng",
        "Street": "Nguyễn Trãi",
        "SupportDisability": "",
        "Ward": "Phường Bến Thành",
        "Zone": "Quận 1"
      },
      {
        "AddressNo": "206Bis",
        "Code": "Q1 147",
        "Lat": 10.767692,
        "Lng": 106.688591,
        "Name": "Nhà thờ Huyện Sỹ",
        "Routes": "27, 46, 53",
        "Search": "NtHS 206Bis NT",
        "Status": "Đang khai thác",
        "StopId": 86,
        "StopType": "Trụ dừng",
        "Street": "Nguyễn Trãi",
        "SupportDisability": "",
        "Ward": "",
        "Zone": "Quận 1"
      },
      {
        "AddressNo": 136,
        "Code": "Q1 146",
        "Lat": 10.769646,
        "Lng": 106.690788,
        "Name": "Tôn Thất Tùng",
        "Routes": "28, 46, 65",
        "Search": "TTT 136 NT",
        "Status": "Đang khai thác",
        "StopId": 87,
        "StopType": "Trụ dừng",
        "Street": "Nguyễn Trãi",
        "SupportDisability": "",
        "Ward": "Phường Bến Thành",
        "Zone": "Quận 1"
      },
      {
        "AddressNo": 244,
        "Code": "Q1 006",
        "Lat": 10.766943,
        "Lng": 106.687793,
        "Name": "Chợ Thái Bình",
        "Routes": 27,
        "Search": "CTB 244 CQ",
        "Status": "Đang khai thác",
        "StopId": 88,
        "StopType": "Trụ dừng",
        "Street": "Cống Quỳnh",
        "SupportDisability": "",
        "Ward": "",
        "Zone": "Quận 1"
      },
      {
        "AddressNo": "464 - 466",
        "Code": "Q3 072",
        "Lat": 10.767723,
        "Lng": 106.683657,
        "Name": "Trung ương Hội Chữ thập đỏ TP",
        "Routes": "05, 06, 14, 27, 38, 53, 70-3",
        "Search": "TuHCtdT 464-466 NTMK",
        "Status": "Đang khai thác",
        "StopId": 89,
        "StopType": "Nhà chờ",
        "Street": "Nguyễn Thị Minh Khai",
        "SupportDisability": "",
        "Ward": "",
        "Zone": "Quận 3"
      },
      {
        "AddressNo": 488,
        "Code": "Q3 073",
        "Lat": 10.766395,
        "Lng": 106.68238,
        "Name": "Nhà sách Minh Khai",
        "Routes": "05, 06, 14, 27, 38, 53",
        "Search": "NsMK 488 NTMK",
        "Status": "Đang khai thác",
        "StopId": 90,
        "StopType": "Trụ dừng",
        "Street": "Nguyễn Thị Minh Khai",
        "SupportDisability": "",
        "Ward": "",
        "Zone": "Quận 3"
      },
      {
        "AddressNo": "82-84",
        "Code": "Q3 074",
        "Lat": 10.767317,
        "Lng": 106.68084,
        "Name": "Chợ Bàn Cờ",
        "Routes": "",
        "Search": "CBC 82-84 NTT",
        "Status": "Tạm ngưng khai thác",
        "StopId": 91,
        "StopType": "Trụ dừng",
        "Street": "Nguyễn Thiện Thuật",
        "SupportDisability": "",
        "Ward": "Phường 02",
        "Zone": "Quận 3"
      },
      {
        "AddressNo": "503-507",
        "Code": "Q3 021",
        "Lat": 10.771164,
        "Lng": 106.67738,
        "Name": "Cao Thắng",
        "Routes": "150, 91",
        "Search": "CT 503-507 DBP",
        "Status": "Đang khai thác",
        "StopId": 92,
        "StopType": "Ô sơn",
        "Street": "Điện Biên Phủ",
        "SupportDisability": "",
        "Ward": "Phường 01",
        "Zone": "Quận 3"
      },
      {
        "AddressNo": 156,
        "Code": "Q10 089",
        "Lat": 10.773362,
        "Lng": 106.67836,
        "Name": "Cao Thắng",
        "Routes": "",
        "Search": "CT 156 CT",
        "Status": "Đang khai thác",
        "StopId": 93,
        "StopType": "Trụ dừng",
        "Street": "Cao Thắng",
        "SupportDisability": "",
        "Ward": "",
        "Zone": "Quận 10"
      },
      {
        "AddressNo": "Kế 10A",
        "Code": "Q10 004",
        "Lat": 10.772661,
        "Lng": 106.675701,
        "Name": "Học viện Hành chính Quốc gia",
        "Routes": "07, 91",
        "Search": "HvHcQg K10A D3/2",
        "Status": "Đang khai thác",
        "StopId": 94,
        "StopType": "Nhà chờ",
        "Street": "Đường 3/2",
        "SupportDisability": "",
        "Ward": "",
        "Zone": "Quận 10"
      },
      {
        "AddressNo": 10,
        "Code": "Q10 003",
        "Lat": 10.773457,
        "Lng": 106.676951,
        "Name": "Học viện Hành chính Quốc gia",
        "Routes": "07, 10, 91",
        "Search": "HvHcQg 10 D3/2",
        "Status": "Đang khai thác",
        "StopId": 95,
        "StopType": "Nhà chờ",
        "Street": "Đường 3/2",
        "SupportDisability": "",
        "Ward": "",
        "Zone": "Quận 10"
      },
      {
        "AddressNo": 270,
        "Code": "Q10 006",
        "Lat": 10.770521,
        "Lng": 106.67215,
        "Name": "Nhà thờ Vinh Sơn",
        "Routes": 7,
        "Search": "NtVS 270 D3/2",
        "Status": "Đang khai thác",
        "StopId": 96,
        "StopType": "Trụ dừng",
        "Street": "Đường 3/2",
        "SupportDisability": "",
        "Ward": "",
        "Zone": "Quận 10"
      },
      {
        "AddressNo": 240,
        "Code": "Q10 005",
        "Lat": 10.771712,
        "Lng": 106.674202,
        "Name": "Nhà hát Hòa Bình",
        "Routes": "07, 91",
        "Search": "NhHB 240 D3/2",
        "Status": "Đang khai thác",
        "StopId": 97,
        "StopType": "Nhà chờ",
        "Street": "Đường 3/2",
        "SupportDisability": "",
        "Ward": "",
        "Zone": "Quận 10"
      },
      {
        "AddressNo": 8,
        "Code": "Q1 124",
        "Lat": 10.768772,
        "Lng": 106.695923,
        "Name": "Trường Ernst Thalmann",
        "Routes": "01, 139, 28, 45, 69",
        "Search": "TET 8 THD",
        "Status": "Đang khai thác",
        "StopId": 120,
        "StopType": "Nhà chờ",
        "Street": "Trần Hưng Đạo",
        "SupportDisability": "",
        "Ward": "",
        "Zone": "Quận 1"
      },
      {
        "AddressNo": 10,
        "Code": "Q1 125",
        "Lat": 10.767363,
        "Lng": 106.694695,
        "Name": "KTX Trần Hưng Đạo",
        "Routes": "01, 139, 152, 45, 56",
        "Search": "KTHD 10 THD",
        "Status": "Đang khai thác",
        "StopId": 121,
        "StopType": "Nhà chờ",
        "Street": "Trần Hưng Đạo",
        "SupportDisability": "",
        "Ward": "",
        "Zone": "Quận 1"
      },
      {
        "AddressNo": 112,
        "Code": "Q1 126",
        "Lat": 10.765832,
        "Lng": 106.693375,
        "Name": "Rạp Hưng Đạo",
        "Routes": "01, 139, 152, 45, 56",
        "Search": "RHD 112 THD",
        "Status": "Đang khai thác",
        "StopId": 122,
        "StopType": "Nhà chờ",
        "Street": "Trần Hưng Đạo",
        "SupportDisability": "",
        "Ward": "",
        "Zone": "Quận 1"
      },
      {
        "AddressNo": 150,
        "Code": "Q1 127",
        "Lat": 10.763918,
        "Lng": 106.691696,
        "Name": "Bệnh viện Răng Hàm Mặt",
        "Routes": "01, 139, 152",
        "Search": "BvRHM 150 THD",
        "Status": "Đang khai thác",
        "StopId": 123,
        "StopType": "Nhà chờ",
        "Street": "Trần Hưng Đạo",
        "SupportDisability": "",
        "Ward": "",
        "Zone": "Quận 1"
      },
      {
        "AddressNo": "183A-183B",
        "Code": "Q10 013",
        "Lat": 10.771855,
        "Lng": 106.674805,
        "Name": "Nhà hát Hòa Bình",
        "Routes": 7,
        "Search": "NhHB 183A-183B D3/2",
        "Status": "Đang khai thác",
        "StopId": 159,
        "StopType": "Trụ dừng",
        "Street": "Đường 3/2",
        "SupportDisability": "",
        "Ward": "",
        "Zone": "Quận 10"
      },
      {
        "AddressNo": "273-275",
        "Code": "Q10 012",
        "Lat": 10.770269,
        "Lng": 106.672166,
        "Name": "Nhà thờ Vinh Sơn",
        "Routes": 7,
        "Search": "NtVS 273-275 D3/2",
        "Status": "Đang khai thác",
        "StopId": 160,
        "StopType": "Trụ dừng",
        "Street": "Đường 3/2",
        "SupportDisability": "",
        "Ward": "",
        "Zone": "Quận 10"
      },
      {
        "AddressNo": 75,
        "Code": "Q3 018",
        "Lat": 10.77182,
        "Lng": 106.679947,
        "Name": "Rạp Đại Đồng",
        "Routes": "",
        "Search": "RDD 75 CT",
        "Status": "Tạm ngưng khai thác",
        "StopId": 161,
        "StopType": "Nhà chờ",
        "Street": "Cao Thắng",
        "SupportDisability": "",
        "Ward": "",
        "Zone": "Quận 3"
      },
      {
        "AddressNo": 113,
        "Code": "Q10 014",
        "Lat": 10.77323,
        "Lng": 106.677015,
        "Name": "Học viện Hành chính Quốc gia",
        "Routes": 7,
        "Search": "HvHcQg 113 D3/2",
        "Status": "Đang khai thác",
        "StopId": 162,
        "StopType": "Trụ dừng",
        "Street": "Đường 3/2",
        "SupportDisability": "",
        "Ward": "",
        "Zone": "Quận 10"
      },
      {
        "AddressNo": 31,
        "Code": "Q3 019",
        "Lat": 10.769566,
        "Lng": 106.682526,
        "Name": "Nguyễn Đình Chiểu",
        "Routes": "",
        "Search": "NDC 31 CT",
        "Status": "Tạm ngưng khai thác",
        "StopId": 163,
        "StopType": "Trụ dừng",
        "Street": "Cao Thắng",
        "SupportDisability": "",
        "Ward": "",
        "Zone": "Quận 3"
      },
      {
        "AddressNo": "A43",
        "Code": "Q1 007",
        "Lat": 10.766863,
        "Lng": 106.687653,
        "Name": "Chợ Thái Bình",
        "Routes": "27, 70-3",
        "Search": "CTB A CQ",
        "Status": "Đang khai thác",
        "StopId": 164,
        "StopType": "Trụ dừng",
        "Street": "Cống Quỳnh",
        "SupportDisability": "",
        "Ward": "",
        "Zone": "Quận 1"
      },
      {
        "AddressNo": "CÔNG TRƯỜNG MÊ LINH",
        "Code": "BX 07",
        "Lat": 10.776809,
        "Lng": 106.705429,
        "Name": "Công Trường Mê Linh",
        "Routes": "",
        "Search": "CTML CTML DD",
        "Status": "Đã hủy",
        "StopId": 165,
        "StopType": "Bến xe",
        "Street": "Đông Du",
        "SupportDisability": "",
        "Ward": "",
        "Zone": "Quận 1"
      },
      {
        "AddressNo": "Đối diện 166 - 168",
        "Code": "Q3 057",
        "Lat": 10.779844,
        "Lng": 106.69452,
        "Name": "Trường THPT Lê Quý Đôn",
        "Routes": "04, 109, 152, 31, 93",
        "Search": "TTLQD Dd166-168 NKKN",
        "Status": "Đang khai thác",
        "StopId": 197,
        "StopType": "Nhà chờ",
        "Street": "Nam Kỳ Khởi Nghĩa",
        "SupportDisability": "",
        "Ward": "",
        "Zone": "Quận 3"
      },
      {
        "AddressNo": "Đối diện 96A",
        "Code": "Q1 076",
        "Lat": 10.773957,
        "Lng": 106.699722,
        "Name": "Chùa Ông",
        "Routes": "04, 109, 152, 18, 31, 36, 44, 52, 93",
        "Search": "CO Dd96A NKKN",
        "Status": "Đang khai thác",
        "StopId": 199,
        "StopType": "Trụ dừng",
        "Street": "Nam Kỳ Khởi Nghĩa",
        "SupportDisability": "",
        "Ward": "",
        "Zone": "Quận 1"
      },
      {
        "AddressNo": 131,
        "Code": "Q1 075",
        "Lat": 10.776052,
        "Lng": 106.698647,
        "Name": "Tòa án Nhân dân Thành Phố",
        "Routes": "04, 109, 152, 18, 31, 36, 52, 93",
        "Search": "TaNdTP 131 NKKN",
        "Status": "Đang khai thác",
        "StopId": 200,
        "StopType": "Nhà chờ",
        "Street": "Nam Kỳ Khởi Nghĩa",
        "SupportDisability": "",
        "Ward": "",
        "Zone": "Quận 1"
      },
      {
        "AddressNo": "Đối diện 86",
        "Code": "Q1 077",
        "Lat": 10.771416,
        "Lng": 106.700851,
        "Name": "Trường CĐKT Cao Thắng",
        "Routes": "04, 109, 152, 18, 31, 36, 44, 52, 93",
        "Search": "TCCT Dd86 NKKN",
        "Status": "Đang khai thác",
        "StopId": 201,
        "StopType": "Trụ dừng",
        "Street": "Nam Kỳ Khởi Nghĩa",
        "SupportDisability": "",
        "Ward": "",
        "Zone": "Quận 1"
      },
      {
        "AddressNo": "Kế 115",
        "Code": "Q1 066",
        "Lat": 10.779385,
        "Lng": 106.701744,
        "Name": "Bệnh viện Nhi Đồng 2",
        "Routes": "03, 19, 45",
        "Search": "BvND2 K115 HBT",
        "Status": "Đang khai thác",
        "StopId": 237,
        "StopType": "Nhà chờ",
        "Street": "Hai Bà Trưng",
        "SupportDisability": "",
        "Ward": "",
        "Zone": "Quận 1"
      },
      {
        "AddressNo": 101,
        "Code": "Q1 067",
        "Lat": 10.777873,
        "Lng": 106.70351,
        "Name": "Nhà Hát Thành Phố",
        "Routes": "03, 19, 45",
        "Search": "NHTP 101 HBT",
        "Status": "Đang khai thác",
        "StopId": 238,
        "StopType": "Trụ dừng",
        "Street": "Hai Bà Trưng",
        "SupportDisability": "",
        "Ward": "",
        "Zone": "Quận 1"
      },
      {
        "AddressNo": "Đối diện 2",
        "Code": "Q1 068",
        "Lat": 10.775976,
        "Lng": 106.705635,
        "Name": "Công Trường Mê Linh",
        "Routes": "03, 19, 45",
        "Search": "CTML Dd2 HBT",
        "Status": "Đang khai thác",
        "StopId": 239,
        "StopType": "Trụ dừng",
        "Street": "Hai Bà Trưng",
        "SupportDisability": "",
        "Ward": "",
        "Zone": "Quận 1"
      },
      {
        "AddressNo": 42,
        "Code": "Q1 105",
        "Lat": 10.772419,
        "Lng": 106.695839,
        "Name": "Chùa Bà Ấn",
        "Routes": "DL02",
        "Search": "CBA 42 TD",
        "Status": "Đang khai thác",
        "StopId": 241,
        "StopType": "Trụ dừng",
        "Street": "Trương Định",
        "SupportDisability": "",
        "Ward": "",
        "Zone": "Quận 1"
      },
      {
        "AddressNo": "Đối diện số 138",
        "Code": "Q1 092",
        "Lat": 10.777097,
        "Lng": 106.692757,
        "Name": "Nhà Văn Hóa Lao Động",
        "Routes": "05, 06, 14, 28",
        "Search": "NVHLD Dds138 NTMK",
        "Status": "Đang khai thác",
        "StopId": 242,
        "StopType": "Nhà chờ",
        "Street": "Nguyễn Thị Minh Khai",
        "SupportDisability": "",
        "Ward": "",
        "Zone": "Quận 1"
      },
      {
        "AddressNo": "Đối diện 492",
        "Code": "Q1 088",
        "Lat": 10.766214,
        "Lng": 106.682533,
        "Name": "Phạm Viết Chánh",
        "Routes": "05, 06, 14, 38, 69",
        "Search": "PVC Dd492 NTMK",
        "Status": "Đang khai thác",
        "StopId": 287,
        "StopType": "Nhà chờ",
        "Street": "Nguyễn Thị Minh Khai",
        "SupportDisability": "",
        "Ward": "",
        "Zone": "Quận 1"
      },
      {
        "AddressNo": 419,
        "Code": "Q10 020",
        "Lat": 10.764703,
        "Lng": 106.675444,
        "Name": "Chợ Lê Hồng Phong",
        "Routes": "05, 91",
        "Search": "CLHP 419 LHP",
        "Status": "Đang khai thác",
        "StopId": 288,
        "StopType": "Nhà chờ",
        "Street": "Lê Hồng Phong",
        "SupportDisability": "",
        "Ward": "",
        "Zone": "Quận 10"
      },
      {
        "AddressNo": 99,
        "Code": "Q1 090",
        "Lat": 10.77185,
        "Lng": 106.687943,
        "Name": "Tôn Thất Tùng",
        "Routes": "05, 06, 14, 38, 69",
        "Search": "TTT 99 NTMK",
        "Status": "Đang khai thác",
        "StopId": 289,
        "StopType": "Trụ dừng",
        "Street": "Nguyễn Thị Minh Khai",
        "SupportDisability": "",
        "Ward": "",
        "Zone": "Quận 1"
      },
      {
        "AddressNo": "Đối diện 446",
        "Code": "Q1 089",
        "Lat": 10.768709,
        "Lng": 106.685024,
        "Name": "Bệnh viện Từ Dũ",
        "Routes": "05, 06, 14, 38, 69",
        "Search": "BvTD Dd446 NTMK",
        "Status": "Đang khai thác",
        "StopId": 290,
        "StopType": "Nhà chờ",
        "Street": "Nguyễn Thị Minh Khai",
        "SupportDisability": "",
        "Ward": "",
        "Zone": "Quận 1"
      },
      {
        "AddressNo": "43 - 45 - 47",
        "Code": "Q1 093",
        "Lat": 10.781031,
        "Lng": 106.696434,
        "Name": "Pasteur",
        "Routes": "05, 06, 14, 31",
        "Search": "P 43-45-47 NTMK",
        "Status": "Đang khai thác",
        "StopId": 291,
        "StopType": "Nhà chờ",
        "Street": "Nguyễn Thị Minh Khai",
        "SupportDisability": "",
        "Ward": "",
        "Zone": "Quận 1"
      },
      {
        "AddressNo": "Đối diện 214-216",
        "Code": "Q1 091",
        "Lat": 10.774179,
        "Lng": 106.690158,
        "Name": "Sở Y Tế",
        "Routes": "05, 06, 14, 28",
        "Search": "SYT Dd214-216 NTMK",
        "Status": "Đang khai thác",
        "StopId": 292,
        "StopType": "Nhà chờ",
        "Street": "Nguyễn Thị Minh Khai",
        "SupportDisability": "",
        "Ward": "",
        "Zone": "Quận 1"
      },
      {
        "AddressNo": 44,
        "Code": "Q3 107",
        "Lat": 10.777889,
        "Lng": 106.691365,
        "Name": "Trần Quốc Thảo",
        "Routes": "05, 06, 14",
        "Search": "TQT 44 VVT",
        "Status": "Đang khai thác",
        "StopId": 376,
        "StopType": "Nhà chờ",
        "Street": "Võ Văn Tần",
        "SupportDisability": "",
        "Ward": "Phường 06",
        "Zone": "Quận 3"
      },
      {
        "AddressNo": 28,
        "Code": "Q3 106",
        "Lat": 10.779143,
        "Lng": 106.69254,
        "Name": "Bảo tàng chứng tích chiến tranh",
        "Routes": "05, 06, 14, DL01, DL02",
        "Search": "Btctct 28 VVT",
        "Status": "Đang khai thác",
        "StopId": 377,
        "StopType": "Nhà chờ",
        "Street": "Võ Văn Tần",
        "SupportDisability": "Có",
        "Ward": "",
        "Zone": "Quận 3"
      },
      {
        "AddressNo": 62,
        "Code": "Q3 108",
        "Lat": 10.776418,
        "Lng": 106.69004,
        "Name": "Đại học Mở thành phố HCM",
        "Routes": "05, 06, 14",
        "Search": "DhMtpH 62 VVT",
        "Status": "Đang khai thác",
        "StopId": 379,
        "StopType": "Trụ dừng",
        "Street": "Võ Văn Tần",
        "SupportDisability": "",
        "Ward": "",
        "Zone": "Quận 3"
      },
      {
        "AddressNo": 284,
        "Code": "Q3 069",
        "Lat": 10.77342,
        "Lng": 106.689021,
        "Name": "Cách Mạng tháng 8",
        "Routes": "05, 06, 14, 38",
        "Search": "CMt8 284 NTMK",
        "Status": "Đang khai thác",
        "StopId": 380,
        "StopType": "Trụ dừng",
        "Street": "Nguyễn Thị Minh Khai",
        "SupportDisability": "",
        "Ward": "",
        "Zone": "Quận 3"
      },
      {
        "AddressNo": 17,
        "Code": "Q3 005",
        "Lat": 10.775102,
        "Lng": 106.690186,
        "Name": "Nguyễn Thị Minh Khai",
        "Routes": "05, 06, 14",
        "Search": "NTMK 17 BHTQ",
        "Status": "Đang khai thác",
        "StopId": 381,
        "StopType": "Trụ dừng",
        "Street": "Bà Huyện Thanh Quan",
        "SupportDisability": "",
        "Ward": "",
        "Zone": "Quận 3"
      },
      {
        "AddressNo": 436,
        "Code": "Q3 071",
        "Lat": 10.768946,
        "Lng": 106.684883,
        "Name": "Bệnh viện Từ Dũ",
        "Routes": "05, 06, 14, 38",
        "Search": "BvTD 436 NTMK",
        "Status": "Đang khai thác",
        "StopId": 382,
        "StopType": "Trụ dừng",
        "Street": "Nguyễn Thị Minh Khai",
        "SupportDisability": "",
        "Ward": "",
        "Zone": "Quận 3"
      },
      {
        "AddressNo": 414,
        "Code": "Q3 070",
        "Lat": 10.77079,
        "Lng": 106.686634,
        "Name": "Tôn Thất Tùng",
        "Routes": "05, 06, 14, 38",
        "Search": "TTT 414 NTMK",
        "Status": "Đang khai thác",
        "StopId": 383,
        "StopType": "Trụ dừng",
        "Street": "Nguyễn Thị Minh Khai",
        "SupportDisability": "",
        "Ward": "",
        "Zone": "Quận 3"
      },
      {
        "AddressNo": "Kế số 2",
        "Code": "Q10 080",
        "Lat": 10.763913,
        "Lng": 106.678963,
        "Name": "Ngã tư Trần Bình Trọng",
        "Routes": "05, 53",
        "Search": "NtTBT Ks2 HV",
        "Status": "Đang khai thác",
        "StopId": 384,
        "StopType": "Nhà chờ",
        "Street": "Hùng Vương",
        "SupportDisability": "",
        "Ward": "",
        "Zone": "Quận 10"
      },
      {
        "AddressNo": "Đối diện số 1",
        "Code": "Q10 079",
        "Lat": 10.764877,
        "Lng": 106.680443,
        "Name": "Công viên Âu Lạc",
        "Routes": "05, 70-3",
        "Search": "CvAL Dds1 HV",
        "Status": "Đang khai thác",
        "StopId": 385,
        "StopType": "Nhà chờ",
        "Street": "Hùng Vương",
        "SupportDisability": "",
        "Ward": "",
        "Zone": "Quận 10"
      },
      {
        "AddressNo": 400,
        "Code": "Q10 021",
        "Lat": 10.764429,
        "Lng": 106.67569,
        "Name": "Chợ Lê Hồng Phong",
        "Routes": "05, 91",
        "Search": "CLHP 400 LHP",
        "Status": "Đang khai thác",
        "StopId": 386,
        "StopType": "Trụ dừng",
        "Street": "Lê Hồng Phong",
        "SupportDisability": "",
        "Ward": "",
        "Zone": "Quận 10"
      },
      {
        "AddressNo": 235,
        "Code": "Q5 073",
        "Lat": 10.764456,
        "Lng": 106.681946,
        "Name": "Trường THPT Lê Hồng Phong",
        "Routes": "06, 38",
        "Search": "TTLHP 235 NVC",
        "Status": "Đang khai thác",
        "StopId": 425,
        "StopType": "Nhà chờ",
        "Street": "Nguyễn Văn Cừ",
        "SupportDisability": "",
        "Ward": "",
        "Zone": "Quận 5"
      },
      {
        "AddressNo": 51,
        "Code": "Q10 015",
        "Lat": 10.774421,
        "Lng": 106.67885,
        "Name": "Bệnh viện Bình Dân",
        "Routes": 7,
        "Search": "BvBD 51 D3/2",
        "Status": "Đang khai thác",
        "StopId": 445,
        "StopType": "Trụ dừng",
        "Street": "Đường 3/2",
        "SupportDisability": "",
        "Ward": "",
        "Zone": "Quận 10"
      },
      {
        "AddressNo": 25,
        "Code": "Q3 033",
        "Lat": 10.780805,
        "Lng": 106.681305,
        "Name": "Nhà thờ Dòng chúa Cứu thế",
        "Routes": 7,
        "Search": "NtDcCt 25 KD",
        "Status": "Đang khai thác",
        "StopId": 447,
        "StopType": "Trụ dừng",
        "Street": "Kỳ Đồng",
        "SupportDisability": "",
        "Ward": "",
        "Zone": "Quận 3"
      },
      {
        "AddressNo": 3,
        "Code": "Q10 016",
        "Lat": 10.776977,
        "Lng": 106.68099,
        "Name": "Siêu thị Maximark",
        "Routes": 7,
        "Search": "StM 3 D3/2",
        "Status": "Đang khai thác",
        "StopId": 448,
        "StopType": "Nhà chờ",
        "Street": "Đường 3/2",
        "SupportDisability": "",
        "Ward": "",
        "Zone": "Quận 10"
      },
      {
        "AddressNo": "Đối diện số 235 (trước NowZone)",
        "Code": "Q1 142",
        "Lat": 10.764503,
        "Lng": 106.68216,
        "Name": "Trường Lê Hồng Phong",
        "Routes": "06, 38",
        "Search": "TLHP Dds235(N NVC",
        "Status": "Đang khai thác",
        "StopId": 471,
        "StopType": "Nhà chờ",
        "Street": "Nguyễn Văn Cừ",
        "SupportDisability": "",
        "Ward": "Phường Nguyễn Cư Trinh",
        "Zone": "Quận 1"
      },
      {
        "AddressNo": 38,
        "Code": "Q3 036",
        "Lat": 10.780704,
        "Lng": 106.681061,
        "Name": "Nhà thờ Dòng chúa Cứu thế",
        "Routes": 7,
        "Search": "NtDcCt 38 KD",
        "Status": "Đang khai thác",
        "StopId": 561,
        "StopType": "Nhà chờ",
        "Street": "Kỳ Đồng",
        "SupportDisability": "Có",
        "Ward": "",
        "Zone": "Quận 3"
      },
      {
        "AddressNo": "47 - 49",
        "Code": "Q3 068",
        "Lat": 10.778592,
        "Lng": 106.681038,
        "Name": "Vòng xoay Dân Chủ",
        "Routes": 7,
        "Search": "VxDC 47-49 NPN",
        "Status": "Đang khai thác",
        "StopId": 562,
        "StopType": "Trụ dừng",
        "Street": "Nguyễn Phúc Nguyên",
        "SupportDisability": "",
        "Ward": "Phường 10",
        "Zone": "Quận 3"
      },
      {
        "AddressNo": 172,
        "Code": "Q10 002",
        "Lat": 10.774785,
        "Lng": 106.678947,
        "Name": "Bệnh viện Bình Dân",
        "Routes": "07, 91",
        "Search": "BvBD 172 D3/2",
        "Status": "Đang khai thác",
        "StopId": 563,
        "StopType": "Trụ dừng",
        "Street": "Đường 3/2",
        "SupportDisability": "",
        "Ward": "",
        "Zone": "Quận 10"
      },
      {
        "AddressNo": "Đối diện 186 (167)",
        "Code": "Q3 067",
        "Lat": 10.780645,
        "Lng": 106.678888,
        "Name": "Rạch Bùng Binh",
        "Routes": 7,
        "Search": "RBB Dd186( NPN",
        "Status": "Đang khai thác",
        "StopId": 566,
        "StopType": "Trụ dừng",
        "Street": "Nguyễn Phúc Nguyên",
        "SupportDisability": "",
        "Ward": "",
        "Zone": "Quận 3"
      },
      {
        "AddressNo": 54,
        "Code": "Q10 001",
        "Lat": 10.777162,
        "Lng": 106.680771,
        "Name": "Siêu thị Maximark",
        "Routes": "07, 10, 91",
        "Search": "StM 54 D3/2",
        "Status": "Đang khai thác",
        "StopId": 568,
        "StopType": "Trụ dừng",
        "Street": "Đường 3/2",
        "SupportDisability": "",
        "Ward": "",
        "Zone": "Quận 10"
      },
      {
        "AddressNo": 303,
        "Code": "Q3 024",
        "Lat": 10.777009,
        "Lng": 106.684145,
        "Name": "Cách Mạng tháng 8",
        "Routes": "10, 150, 30, 91",
        "Search": "CMt8 303 DBP",
        "Status": "Đang khai thác",
        "StopId": 731,
        "StopType": "Nhà chờ",
        "Street": "Điện Biên Phủ",
        "SupportDisability": "Có",
        "Ward": "",
        "Zone": "Quận 3"
      },
      {
        "AddressNo": "75-83",
        "Code": "Q4 034",
        "Lat": 10.763744,
        "Lng": 106.707941,
        "Name": "Bưu Điện Quận 4",
        "Routes": "102, 20, 31, 34, 75",
        "Search": "BDQ4 75-83 NTT",
        "Status": "Đang khai thác",
        "StopId": 849,
        "StopType": "Ô sơn",
        "Street": "Nguyễn Tất Thành",
        "SupportDisability": "",
        "Ward": "",
        "Zone": "Quận 4"
      },
      {
        "AddressNo": "106-108",
        "Code": "Q4 007",
        "Lat": 10.763744,
        "Lng": 106.704031,
        "Name": "Đoàn Văn Bơ",
        "Routes": "102, 20, 31, 34, 75",
        "Search": "DVB 106-108 HD",
        "Status": "Đang khai thác",
        "StopId": 851,
        "StopType": "Trụ dừng",
        "Street": "Hoàng Diệu",
        "SupportDisability": "",
        "Ward": "",
        "Zone": "Quận 4"
      },
      {
        "AddressNo": 34,
        "Code": "Q4 006",
        "Lat": 10.764983,
        "Lng": 106.706471,
        "Name": "Chợ Xóm Chiếu",
        "Routes": "102, 20, 31, 34, 75",
        "Search": "CXC 34 HD",
        "Status": "Đang khai thác",
        "StopId": 852,
        "StopType": "Trụ dừng",
        "Street": "Hoàng Diệu",
        "SupportDisability": "",
        "Ward": "",
        "Zone": "Quận 4"
      },
      {
        "AddressNo": 97,
        "Code": "Q1 001",
        "Lat": 10.767768,
        "Lng": 106.699219,
        "Name": "Calmette",
        "Routes": "102, 123, 124, 34, 38, 44, 86",
        "Search": "C 97 C",
        "Status": "Đang khai thác",
        "StopId": 853,
        "StopType": "Trụ dừng",
        "Street": "Calmette",
        "SupportDisability": "",
        "Ward": "",
        "Zone": "Quận 1"
      },
      {
        "AddressNo": "134 (đối diện 141)",
        "Code": "Q1 002",
        "Lat": 10.769178,
        "Lng": 106.698334,
        "Name": "Lê Thị Hồng Gấm",
        "Routes": "123, 124, 44",
        "Search": "LTHG 134(d141) C",
        "Status": "Đang khai thác",
        "StopId": 854,
        "StopType": "Trụ dừng",
        "Street": "Calmette",
        "SupportDisability": "",
        "Ward": "",
        "Zone": "Quận 1"
      },
      {
        "AddressNo": "136-138",
        "Code": "Q4 027",
        "Lat": 10.76385,
        "Lng": 106.70763,
        "Name": "Bưu Điện Quận 4",
        "Routes": "102, 20, 31, 34, 75",
        "Search": "BDQ4 136-138 NTT",
        "Status": "Đang khai thác",
        "StopId": 855,
        "StopType": "Trụ dừng",
        "Street": "Nguyễn Tất Thành",
        "SupportDisability": "",
        "Ward": "",
        "Zone": "Quận 4"
      },
      {
        "AddressNo": "51-53",
        "Code": "Q4 014",
        "Lat": 10.764703,
        "Lng": 106.706504,
        "Name": "Chợ Xóm Chiếu",
        "Routes": "102, 31, 34",
        "Search": "CXC 51-53 HD",
        "Status": "Đang khai thác",
        "StopId": 856,
        "StopType": "Trụ dừng",
        "Street": "Hoàng Diệu",
        "SupportDisability": "",
        "Ward": "",
        "Zone": "Quận 4"
      },
      {
        "AddressNo": "Đối diện 211 (212A)",
        "Code": "Q1 148",
        "Lat": 10.765736,
        "Lng": 106.687798,
        "Name": "Chùa Lâm Tế",
        "Routes": "",
        "Search": "CLT Dd211( NT",
        "Status": "Đã hủy",
        "StopId": 1012,
        "StopType": "Trụ dừng",
        "Street": "Nguyễn Trãi",
        "SupportDisability": "",
        "Ward": "",
        "Zone": "Quận 1"
      },
      {
        "AddressNo": 230,
        "Code": "Q1 149",
        "Lat": 10.764556,
        "Lng": 106.687385,
        "Name": "City plaza",
        "Routes": 46,
        "Search": "Cp 230 NT",
        "Status": "Đang khai thác",
        "StopId": 1019,
        "StopType": "Nhà chờ",
        "Street": "Nguyễn Trãi",
        "SupportDisability": "",
        "Ward": "Phường Nguyễn Cư Trinh",
        "Zone": "Quận 1"
      },
      {
        "AddressNo": 217,
        "Code": "Q1 152",
        "Lat": 10.765754,
        "Lng": 106.688004,
        "Name": "Chùa Lâm Tế",
        "Routes": 46,
        "Search": "CLT 217 NT",
        "Status": "Đang khai thác",
        "StopId": 1056,
        "StopType": "Nhà chờ",
        "Street": "Nguyễn Trãi",
        "SupportDisability": "",
        "Ward": "",
        "Zone": "Quận 1"
      },
      {
        "AddressNo": "Đối diện số 1A (5)",
        "Code": "Q1 0250",
        "Lat": 10.777367,
        "Lng": 106.707115,
        "Name": "Bảo tàng Tôn Đức Thắng",
        "Routes": "56, 61-6, 88",
        "Search": "BtTDT Dds1A( TDT",
        "Status": "Đang khai thác",
        "StopId": 1092,
        "StopType": "Ô sơn",
        "Street": "Tôn Đức Thắng",
        "SupportDisability": "",
        "Ward": "Phường Bến Nghé",
        "Zone": "Quận 1"
      },
      {
        "AddressNo": "Đối diện số 3C",
        "Code": "Q1 026",
        "Lat": 10.779949,
        "Lng": 106.707818,
        "Name": "Ngô Văn Năm",
        "Routes": "56, 61-6, 88",
        "Search": "NVN Dds3C TDT",
        "Status": "Đang khai thác",
        "StopId": 1093,
        "StopType": "Ô sơn",
        "Street": "Tôn Đức Thắng",
        "SupportDisability": "",
        "Ward": "Phường Bến Nghé",
        "Zone": "Quận 1"
      },
      {
        "AddressNo": "Đối diện 34-36",
        "Code": "Q1 173",
        "Lat": 10.774611,
        "Lng": 106.704583,
        "Name": "Hồ Huấn Nghiệp",
        "Routes": "123, 124",
        "Search": "HHN Dd34-36 DK",
        "Status": "Đang khai thác",
        "StopId": 1191,
        "StopType": "Trụ dừng",
        "Street": "Đồng Khởi",
        "SupportDisability": "",
        "Ward": "",
        "Zone": "Quận 1"
      },
      {
        "AddressNo": "3C",
        "Code": "Q1 030",
        "Lat": 10.779807,
        "Lng": 106.707609,
        "Name": "Ngô Văn Năm",
        "Routes": "56, 61-6, 88",
        "Search": "NVN 3C TDT",
        "Status": "Đang khai thác",
        "StopId": 1192,
        "StopType": "Trụ dừng",
        "Street": "Tôn Đức Thắng",
        "SupportDisability": "",
        "Ward": "",
        "Zone": "Quận 1"
      },
      {
        "AddressNo": 65,
        "Code": "Q1C0184",
        "Lat": 10.771988868713379,
        "Lng": 106.70142364501953,
        "Name": "Trường Cao Thắng",
        "Routes": "123, 124",
        "Search": "TCT 65 HTK",
        "Status": "Đã hủy",
        "StopId": 1255,
        "StopType": "Trụ dừng",
        "Street": "Huỳnh Thúc Kháng",
        "SupportDisability": "",
        "Ward": "",
        "Zone": "Quận 1"
      },
      {
        "AddressNo": "89A",
        "Code": "Q1 195",
        "Lat": 10.770811,
        "Lng": 106.701998,
        "Name": "Chợ Cũ",
        "Routes": "01, 03, 04, 152, 18, 19, 31, 36, 45, 52, 56, 61-6, 75, 86, 88, 93",
        "Search": "CC 89A HN",
        "Status": "Đang khai thác",
        "StopId": 1256,
        "StopType": "Nhà chờ",
        "Street": "Hàm Nghi",
        "SupportDisability": "",
        "Ward": "Phường Nguyễn Thái Bình",
        "Zone": "Quận 1"
      },
      {
        "AddressNo": 108,
        "Code": "Q3 007",
        "Lat": 10.776461,
        "Lng": 106.684467,
        "Name": "Bệnh viện Mắt - Bình Dân - Da Liễu",
        "Routes": "13, 65",
        "Search": "BvM-BD-DL 108 CMTT",
        "Status": "Đang khai thác",
        "StopId": 1296,
        "StopType": "Trụ dừng",
        "Street": "Cách Mạng Tháng Tám",
        "SupportDisability": "",
        "Ward": "",
        "Zone": "Quận 3"
      },
      {
        "AddressNo": "Đối diện số 89",
        "Code": "Q1 003",
        "Lat": 10.773046,
        "Lng": 106.690813,
        "Name": "Trống Đồng",
        "Routes": "13, 28, 38, 65, 69",
        "Search": "TD Dds89 CMTT",
        "Status": "Đang khai thác",
        "StopId": 1297,
        "StopType": "Nhà chờ",
        "Street": "Cách Mạng Tháng Tám",
        "SupportDisability": "",
        "Ward": "",
        "Zone": "Quận 1"
      },
      {
        "AddressNo": "276 Bis",
        "Code": "Q3 010",
        "Lat": 10.780703,
        "Lng": 106.676345,
        "Name": "Ngã Ba Chí Hòa",
        "Routes": "13, 30, 65",
        "Search": "NBCH 276B CMTT",
        "Status": "Đang khai thác",
        "StopId": 1298,
        "StopType": "Trụ dừng",
        "Street": "Cách Mạng Tháng Tám",
        "SupportDisability": "",
        "Ward": "Phường 10",
        "Zone": "Quận 3"
      },
      {
        "AddressNo": "132C - 132D",
        "Code": "Q3 009",
        "Lat": 10.778516,
        "Lng": 106.680481,
        "Name": "Công trường Dân Chủ",
        "Routes": "13, 30, 65",
        "Search": "CtDC 132C-132D CMTT",
        "Status": "Đang khai thác",
        "StopId": 1299,
        "StopType": "Trụ dừng",
        "Street": "Cách Mạng Tháng Tám",
        "SupportDisability": "",
        "Ward": "Phường 10",
        "Zone": "Quận 3"
      },
      {
        "AddressNo": "65G (75)",
        "Code": "Q1 119",
        "Lat": 10.766785,
        "Lng": 106.696011,
        "Name": "Cầu Ông Lãnh",
        "Routes": "139, 140, 31, 46, 72",
        "Search": "COL 65G( NTH",
        "Status": "Đang khai thác",
        "StopId": 1344,
        "StopType": "Nhà chờ",
        "Street": "Nguyễn Thái Học",
        "SupportDisability": "Có",
        "Ward": "Phường Cầu Ông Lãnh",
        "Zone": "Quận 1"
      },
      {
        "AddressNo": "82 - 84 (82A)",
        "Code": "Q1 120",
        "Lat": 10.766253,
        "Lng": 106.696612,
        "Name": "Cầu Ông Lãnh",
        "Routes": "139, 140, 31, 46, 72, 86",
        "Search": "COL 82-84( NTH",
        "Status": "Đang khai thác",
        "StopId": 1379,
        "StopType": "Nhà chờ",
        "Street": "Nguyễn Thái Học",
        "SupportDisability": "",
        "Ward": "Phường Cầu Ông Lãnh",
        "Zone": "Quận 1"
      },
      {
        "AddressNo": "141-149",
        "Code": "Q1 171",
        "Lat": 10.767602,
        "Lng": 106.696236,
        "Name": "Trường Nguyễn Thái Học",
        "Routes": 139,
        "Search": "TNTH 141-149 LTHG",
        "Status": "Đang khai thác",
        "StopId": 1385,
        "StopType": "Ô sơn",
        "Street": "Lê Thị Hồng Gấm",
        "SupportDisability": "",
        "Ward": "",
        "Zone": "Quận 1"
      },
      {
        "AddressNo": "Đối diện 132A",
        "Code": "Q10 088",
        "Lat": 10.778205,
        "Lng": 106.680706,
        "Name": "Công trường Dân Chủ",
        "Routes": "13, 30, 65",
        "Search": "CtDC Dd132A CMTT",
        "Status": "Đang khai thác",
        "StopId": 1394,
        "StopType": "Nhà chờ",
        "Street": "Cách Mạng Tháng Tám",
        "SupportDisability": "",
        "Ward": "",
        "Zone": "Quận 10"
      },
      {
        "AddressNo": 85,
        "Code": "Q1 004",
        "Lat": 10.772345,
        "Lng": 106.691499,
        "Name": "Trống Đồng",
        "Routes": "13, 28, 38, 65, 69",
        "Search": "TD 85 CMTT",
        "Status": "Đang khai thác",
        "StopId": 1396,
        "StopType": "Trụ dừng",
        "Street": "Cách Mạng Tháng Tám",
        "SupportDisability": "",
        "Ward": "",
        "Zone": "Quận 1"
      },
      {
        "AddressNo": 183,
        "Code": "Q10 032",
        "Lat": 10.767623,
        "Lng": 106.673357,
        "Name": "Chợ Phường 10",
        "Routes": "14, 27, 69",
        "Search": "CP10 183 LTT",
        "Status": "Đang khai thác",
        "StopId": 1398,
        "StopType": "Trụ dừng",
        "Street": "Lý Thái Tổ",
        "SupportDisability": "",
        "Ward": "",
        "Zone": "Quận 10"
      },
      {
        "AddressNo": 205,
        "Code": "Q3 016",
        "Lat": 10.776202,
        "Lng": 106.684338,
        "Name": "Bệnh viện Mắt - Bình Dân - Da Liễu",
        "Routes": "13, 65",
        "Search": "BvM-BD-DL 205 CMTT",
        "Status": "Đang khai thác",
        "StopId": 1400,
        "StopType": "Trụ dừng",
        "Street": "Cách Mạng Tháng Tám",
        "SupportDisability": "Có",
        "Ward": "",
        "Zone": "Quận 3"
      },
      {
        "AddressNo": "26 - 32",
        "Code": "Q1 122",
        "Lat": 10.770854,
        "Lng": 106.693588,
        "Name": "Nguyễn Thị Nghĩa",
        "Routes": "152, 31, 38, 56, 69",
        "Search": "NTN 26-32 NTN",
        "Status": "Đang khai thác",
        "StopId": 1401,
        "StopType": "Trụ dừng",
        "Street": "Nguyễn Thị Nghĩa",
        "SupportDisability": "",
        "Ward": "Phường Bến Thành",
        "Zone": "Quận 1"
      },
      {
        "AddressNo": "Đối diện 180 (1B)",
        "Code": "Q10 034",
        "Lat": 10.766522,
        "Lng": 106.677799,
        "Name": "Nhà khách Chính Phủ",
        "Routes": "14, 27, 69",
        "Search": "NkCP Dd180( LTT",
        "Status": "Đang khai thác",
        "StopId": 1402,
        "StopType": "Nhà chờ",
        "Street": "Lý Thái Tổ",
        "SupportDisability": "",
        "Ward": "",
        "Zone": "Quận 10"
      },
      {
        "AddressNo": 87,
        "Code": "Q10 033",
        "Lat": 10.767196,
        "Lng": 106.675572,
        "Name": "Ngã ba Hồ Thị Kỷ",
        "Routes": "14, 27, 69",
        "Search": "NbHTK 87 LTT",
        "Status": "Đang khai thác",
        "StopId": 1404,
        "StopType": "Trụ dừng",
        "Street": "Lý Thái Tổ",
        "SupportDisability": "",
        "Ward": "",
        "Zone": "Quận 10"
      },
      {
        "AddressNo": "Đối diện 30-32",
        "Code": "Q10 035",
        "Lat": 10.76571,
        "Lng": 106.680449,
        "Name": "Ngã sáu Cộng Hòa",
        "Routes": "14, 27, 69",
        "Search": "NsCH Dd30-32 LTT",
        "Status": "Đang khai thác",
        "StopId": 1406,
        "StopType": "Nhà chờ",
        "Street": "Lý Thái Tổ",
        "SupportDisability": "",
        "Ward": "",
        "Zone": "Quận 10"
      },
      {
        "AddressNo": 120,
        "Code": "Q3 037",
        "Lat": 10.765963,
        "Lng": 106.680363,
        "Name": "Nhà khách Chính phủ",
        "Routes": "14, 27",
        "Search": "NkCp 120 LTT",
        "Status": "Đang khai thác",
        "StopId": 1409,
        "StopType": "Nhà chờ",
        "Street": "Lý Thái Tổ",
        "SupportDisability": "",
        "Ward": "",
        "Zone": "Quận 3"
      },
      {
        "AddressNo": 430,
        "Code": "Q10 029",
        "Lat": 10.767865,
        "Lng": 106.673051,
        "Name": "Chợ Phường 10",
        "Routes": "14, 27, 69",
        "Search": "CP10 430 LTT",
        "Status": "Đang khai thác",
        "StopId": 1411,
        "StopType": "Trụ dừng",
        "Street": "Lý Thái Tổ",
        "SupportDisability": "",
        "Ward": "",
        "Zone": "Quận 10"
      },
      {
        "AddressNo": 170,
        "Code": "Q3 038",
        "Lat": 10.76668,
        "Lng": 106.678099,
        "Name": "Nguyễn Đình Chiểu",
        "Routes": "14, 150, 27, 69",
        "Search": "NDC 170 LTT",
        "Status": "Đang khai thác",
        "StopId": 1413,
        "StopType": "Trụ dừng",
        "Street": "Lý Thái Tổ",
        "SupportDisability": "",
        "Ward": "",
        "Zone": "Quận 3"
      },
      {
        "AddressNo": 306,
        "Code": "Q3 039",
        "Lat": 10.767423,
        "Lng": 106.675664,
        "Name": "Hồ Thị Kỷ",
        "Routes": "14, 150, 27, 69",
        "Search": "HTK 306 LTT",
        "Status": "Đang khai thác",
        "StopId": 1416,
        "StopType": "Biển treo",
        "Street": "Lý Thái Tổ",
        "SupportDisability": "",
        "Ward": "",
        "Zone": "Quận 3"
      },
      {
        "AddressNo": 197,
        "Code": "Q1 118",
        "Lat": 10.768461,
        "Lng": 106.694984,
        "Name": "Trần Hưng Đạo",
        "Routes": "140, 152, 31, 38, 46, 56, 61-6, 72",
        "Search": "THD 197 NTH",
        "Status": "Đang khai thác",
        "StopId": 1451,
        "StopType": "Trụ dừng",
        "Street": "Nguyễn Thái Học",
        "SupportDisability": "",
        "Ward": "",
        "Zone": "Quận 1"
      },
      {
        "AddressNo": 18,
        "Code": "Q3 095",
        "Lat": 10.777372,
        "Lng": 106.690298,
        "Name": "Nguyễn Thị Diệu",
        "Routes": "",
        "Search": "NTD 18 TD",
        "Status": "Tạm ngưng khai thác",
        "StopId": 1705,
        "StopType": "Nhà chờ",
        "Street": "Trương Định",
        "SupportDisability": "",
        "Ward": "",
        "Zone": "Quận 3"
      },
      {
        "AddressNo": "Đối diện 115 - 117",
        "Code": "Q3 097",
        "Lat": 10.780318,
        "Lng": 106.68702,
        "Name": "Điện Biên Phủ",
        "Routes": "",
        "Search": "DBP Dd115-117 TD",
        "Status": "Tạm ngưng khai thác",
        "StopId": 1707,
        "StopType": "Nhà chờ",
        "Street": "Trương Định",
        "SupportDisability": "",
        "Ward": "",
        "Zone": "Quận 3"
      },
      {
        "AddressNo": "32C",
        "Code": "Q3 096",
        "Lat": 10.779301,
        "Lng": 106.688152,
        "Name": "Trường Nguyễn Thị Minh Khai",
        "Routes": "",
        "Search": "TNTMK 32C TD",
        "Status": "Tạm ngưng khai thác",
        "StopId": 1709,
        "StopType": "Nhà chờ",
        "Street": "Trương Định",
        "SupportDisability": "",
        "Ward": "",
        "Zone": "Quận 3"
      },
      {
        "AddressNo": "Đối diện 58",
        "Code": "Q3 002",
        "Lat": 10.779175,
        "Lng": 106.685556,
        "Name": "Bệnh viện Mắt TPHCM",
        "Routes": "",
        "Search": "BvMT Dd58 BHTQ",
        "Status": "Tạm ngưng khai thác",
        "StopId": 1839,
        "StopType": "Nhà chờ",
        "Street": "Bà Huyện Thanh Quan",
        "SupportDisability": "",
        "Ward": "",
        "Zone": "Quận 3"
      },
      {
        "AddressNo": "Đối diện 40",
        "Code": "Q3 003",
        "Lat": 10.777356,
        "Lng": 106.687653,
        "Name": "Hồ Xuân Hương",
        "Routes": "",
        "Search": "HXH Dd40 BHTQ",
        "Status": "Tạm ngưng khai thác",
        "StopId": 1841,
        "StopType": "Nhà chờ",
        "Street": "Bà Huyện Thanh Quan",
        "SupportDisability": "",
        "Ward": "",
        "Zone": "Quận 3"
      },
      {
        "AddressNo": "Đối diện 12",
        "Code": "Q3 004",
        "Lat": 10.775918,
        "Lng": 106.6893,
        "Name": "Võ Văn Tần",
        "Routes": "",
        "Search": "VVT Dd12 BHTQ",
        "Status": "Tạm ngưng khai thác",
        "StopId": 1842,
        "StopType": "Nhà chờ",
        "Street": "Bà Huyện Thanh Quan",
        "SupportDisability": "",
        "Ward": "",
        "Zone": "Quận 3"
      },
      {
        "AddressNo": 3,
        "Code": "Q1 103",
        "Lat": 10.776223,
        "Lng": 106.694198,
        "Name": "Sân vận động Tao Đàn",
        "Routes": "",
        "Search": "SvdTD 3 HTCC",
        "Status": "Tạm ngưng khai thác",
        "StopId": 1843,
        "StopType": "Nhà chờ",
        "Street": "Huyền Trân Công Chúa",
        "SupportDisability": "",
        "Ward": "",
        "Zone": "Quận 1"
      },
      {
        "AddressNo": 220,
        "Code": "Q1 039",
        "Lat": 10.77234,
        "Lng": 106.696295,
        "Name": "Chợ Bến Thành",
        "Routes": "",
        "Search": "CBT 220 LTT",
        "Status": "Tạm ngưng khai thác",
        "StopId": 1844,
        "StopType": "Trụ dừng",
        "Street": "Lê Thánh Tôn",
        "SupportDisability": "",
        "Ward": "Phường Bến Thành",
        "Zone": "Quận 1"
      },
      {
        "AddressNo": "55 - 57",
        "Code": "Q1 104",
        "Lat": 10.774358,
        "Lng": 106.696548,
        "Name": "Thủ Khoa Huân",
        "Routes": "",
        "Search": "TKH 55-57 TKH",
        "Status": "Tạm ngưng khai thác",
        "StopId": 1845,
        "StopType": "Trụ dừng",
        "Street": "Thủ Khoa Huân",
        "SupportDisability": "",
        "Ward": "",
        "Zone": "Quận 1"
      },
      {
        "AddressNo": 170,
        "Code": "Q3 059",
        "Lat": 10.780828,
        "Lng": 106.6922,
        "Name": "Coop Mart Nguyễn Đình Chiểu",
        "Routes": 150,
        "Search": "CMNDC 170 NDC",
        "Status": "Đang khai thác",
        "StopId": 1880,
        "StopType": "Trụ dừng",
        "Street": "Nguyễn Đình Chiểu",
        "SupportDisability": "",
        "Ward": "",
        "Zone": "Quận 3"
      },
      {
        "AddressNo": 310,
        "Code": "Q3 061",
        "Lat": 10.77465,
        "Lng": 106.686394,
        "Name": "Cách mạng Tháng Tám",
        "Routes": "150, 69",
        "Search": "CmTT 310 NDC",
        "Status": "Đang khai thác",
        "StopId": 1882,
        "StopType": "Trụ dừng",
        "Street": "Nguyễn Đình Chiểu",
        "SupportDisability": "",
        "Ward": "",
        "Zone": "Quận 3"
      },
      {
        "AddressNo": 216,
        "Code": "Q3 060",
        "Lat": 10.77824,
        "Lng": 106.689789,
        "Name": "Trương Định",
        "Routes": "150, 28",
        "Search": "TD 216 NDC",
        "Status": "Đang khai thác",
        "StopId": 1883,
        "StopType": "Nhà chờ",
        "Street": "Nguyễn Đình Chiểu",
        "SupportDisability": "",
        "Ward": "",
        "Zone": "Quận 3"
      },
      {
        "AddressNo": "596A - 598",
        "Code": "Q3 063",
        "Lat": 10.769731,
        "Lng": 106.681672,
        "Name": "Cao thắng",
        "Routes": "150, 69",
        "Search": "Ct 596A-598 NDC",
        "Status": "Đang khai thác",
        "StopId": 1884,
        "StopType": "Trụ dừng",
        "Street": "Nguyễn Đình Chiểu",
        "SupportDisability": "",
        "Ward": "",
        "Zone": "Quận 3"
      },
      {
        "AddressNo": "766 - 768",
        "Code": "Q3 065",
        "Lat": 10.76709,
        "Lng": 106.67926,
        "Name": "Lý Thái Tổ",
        "Routes": "150, 69",
        "Search": "LTT 766-768 NDC",
        "Status": "Đang khai thác",
        "StopId": 1885,
        "StopType": "Trụ dừng",
        "Street": "Nguyễn Đình Chiểu",
        "SupportDisability": "",
        "Ward": "",
        "Zone": "Quận 3"
      },
      {
        "AddressNo": "448 - 450",
        "Code": "Q3 062",
        "Lat": 10.772213,
        "Lng": 106.684086,
        "Name": "Chợ Vườn Chuối",
        "Routes": "150, 69",
        "Search": "CVC 448-450 NDC",
        "Status": "Đang khai thác",
        "StopId": 1889,
        "StopType": "Trụ dừng",
        "Street": "Nguyễn Đình Chiểu",
        "SupportDisability": "",
        "Ward": "Phường 04",
        "Zone": "Quận 3"
      },
      {
        "AddressNo": "678 - 680",
        "Code": "Q3 064",
        "Lat": 10.768289,
        "Lng": 106.680359,
        "Name": "Chợ Bàn Cờ",
        "Routes": "150, 69",
        "Search": "CBC 678-680 NDC",
        "Status": "Đang khai thác",
        "StopId": 1890,
        "StopType": "Biển treo",
        "Street": "Nguyễn Đình Chiểu",
        "SupportDisability": "",
        "Ward": "",
        "Zone": "Quận 3"
      },
      {
        "AddressNo": 66,
        "Code": "Q10 026",
        "Lat": 10.766427,
        "Lng": 106.67347,
        "Name": "Đài tưởng niệm",
        "Routes": 150,
        "Search": "Dtn 66 NGT",
        "Status": "Đang khai thác",
        "StopId": 1891,
        "StopType": "Trụ dừng",
        "Street": "Ngô Gia Tự",
        "SupportDisability": "",
        "Ward": "",
        "Zone": "Quận 10"
      },
      {
        "AddressNo": 105,
        "Code": "Q10 025",
        "Lat": 10.765404,
        "Lng": 106.672826,
        "Name": "Đài tưởng niệm",
        "Routes": 150,
        "Search": "Dtn 105 NGT",
        "Status": "Đang khai thác",
        "StopId": 1907,
        "StopType": "Trụ dừng",
        "Street": "Ngô Gia Tự",
        "SupportDisability": "",
        "Ward": "",
        "Zone": "Quận 10"
      },
      {
        "AddressNo": 647,
        "Code": "Q3 020",
        "Lat": 10.768703,
        "Lng": 106.675224,
        "Name": "Ngã 7 Lý Thái Tổ",
        "Routes": "10, 150, 91",
        "Search": "N7LTT 647 DBP",
        "Status": "Đang khai thác",
        "StopId": 1909,
        "StopType": "Trụ dừng",
        "Street": "Điện Biên Phủ",
        "SupportDisability": "",
        "Ward": "Phường 01",
        "Zone": "Quận 3"
      },
      {
        "AddressNo": 399,
        "Code": "Q3 022",
        "Lat": 10.773248,
        "Lng": 106.67981,
        "Name": "Cư Xá Đô Thành",
        "Routes": "150, 91",
        "Search": "CXDT 399 DBP",
        "Status": "Đang khai thác",
        "StopId": 1911,
        "StopType": "Trụ dừng",
        "Street": "Điện Biên Phủ",
        "SupportDisability": "",
        "Ward": "Phường 04",
        "Zone": "Quận 3"
      },
      {
        "AddressNo": 371,
        "Code": "Q3 023",
        "Lat": 10.774641,
        "Lng": 106.68145,
        "Name": "Bệnh viện Bình Dân",
        "Routes": "150, 91",
        "Search": "BvBD 371 DBP",
        "Status": "Đang khai thác",
        "StopId": 1912,
        "StopType": "Nhà chờ",
        "Street": "Điện Biên Phủ",
        "SupportDisability": "Có",
        "Ward": "",
        "Zone": "Quận 3"
      },
      {
        "AddressNo": 291,
        "Code": "Q3 025",
        "Lat": 10.778255,
        "Lng": 106.685471,
        "Name": "Bệnh viện Mắt TPHCM",
        "Routes": "150, 30, 91",
        "Search": "BvMT 291 DBP",
        "Status": "Đang khai thác",
        "StopId": 1913,
        "StopType": "Ô sơn",
        "Street": "Điện Biên Phủ",
        "SupportDisability": "",
        "Ward": "Phường 07",
        "Zone": "Quận 3"
      },
      {
        "AddressNo": 273,
        "Code": "Q3 026",
        "Lat": 10.780286,
        "Lng": 106.687621,
        "Name": "Sở Khoa học và Công nghệ",
        "Routes": "150, 30, 91",
        "Search": "SKhvCn 273 DBP",
        "Status": "Đang khai thác",
        "StopId": 1917,
        "StopType": "Nhà chờ",
        "Street": "Điện Biên Phủ",
        "SupportDisability": "",
        "Ward": "",
        "Zone": "Quận 3"
      },
      {
        "AddressNo": 40,
        "Code": "Q1 040",
        "Lat": 10.77129,
        "Lng": 106.695824,
        "Name": "Khách sạn New world",
        "Routes": "152, 31, 38, 56, 65",
        "Search": "KsNw 40 PHT",
        "Status": "Đang khai thác",
        "StopId": 1944,
        "StopType": "Trụ dừng",
        "Street": "Phạm Hồng Thái",
        "SupportDisability": "",
        "Ward": "Phường Bến Thành",
        "Zone": "Quận 1"
      },
      {
        "AddressNo": "Trường Cao Thắng",
        "Code": "Q1 194",
        "Lat": 10.771043,
        "Lng": 106.701853,
        "Name": "Trường Cao Thắng",
        "Routes": "01, 03, 102, 19, 20, 34, 38, 39, 45, 56, 75, 86, 88, D4",
        "Search": "TCT TCT HN",
        "Status": "Đang khai thác",
        "StopId": 2028,
        "StopType": "Nhà chờ",
        "Street": "Hàm Nghi",
        "SupportDisability": "",
        "Ward": "Phường Bến Nghé",
        "Zone": "Quận 1"
      },
      {
        "AddressNo": "31-33-35",
        "Code": "Q1 018",
        "Lat": 10.770685,
        "Lng": 106.704792,
        "Name": "Tòa nhà Bitexco",
        "Routes": "20, 75",
        "Search": "TnB 31-33-35 HN",
        "Status": "Đang khai thác",
        "StopId": 2114,
        "StopType": "Nhà chờ",
        "Street": "Hàm Nghi",
        "SupportDisability": "",
        "Ward": "Phường Nguyễn Thái Bình",
        "Zone": "Quận 1"
      },
      {
        "AddressNo": 1,
        "Code": "Q1 019",
        "Lat": 10.770637,
        "Lng": 106.705785,
        "Name": "Cục Hải Quan Thành Phố",
        "Routes": "20, 75",
        "Search": "CHQTP 1 HN",
        "Status": "Đang khai thác",
        "StopId": 2115,
        "StopType": "Nhà chờ",
        "Street": "Hàm Nghi",
        "SupportDisability": "",
        "Ward": "Phường Nguyễn Thái Bình",
        "Zone": "Quận 1"
      },
      {
        "AddressNo": "8A",
        "Code": "Q4 026",
        "Lat": 10.767288,
        "Lng": 106.706032,
        "Name": "Đại học Luật",
        "Routes": "20, 75",
        "Search": "DhL 8A NTT",
        "Status": "Đang khai thác",
        "StopId": 2116,
        "StopType": "Trụ dừng",
        "Street": "Nguyễn Tất Thành",
        "SupportDisability": "",
        "Ward": "",
        "Zone": "Quận 4"
      },
      {
        "AddressNo": "59-61",
        "Code": "Q1 143",
        "Lat": 10.76602,
        "Lng": 106.6828,
        "Name": "Nhà Sách Minh Khai",
        "Routes": "27, 53, 70-3",
        "Search": "NSMK 59-61 PVC",
        "Status": "Đang khai thác",
        "StopId": 2405,
        "StopType": "Trụ dừng",
        "Street": "Phạm Viết Chánh",
        "SupportDisability": "",
        "Ward": "",
        "Zone": "Quận 1"
      },
      {
        "AddressNo": "19-21",
        "Code": "Q1 144",
        "Lat": 10.767597,
        "Lng": 106.685084,
        "Name": "Bệnh viện Truyền máu huyết học",
        "Routes": 27,
        "Search": "BvTmhh 19-21 PVC",
        "Status": "Đang khai thác",
        "StopId": 2407,
        "StopType": "Trụ dừng",
        "Street": "Phạm Viết Chánh",
        "SupportDisability": "",
        "Ward": "",
        "Zone": "Quận 1"
      },
      {
        "AddressNo": "Cạnh 63C",
        "Code": "Q3 091",
        "Lat": 10.780871,
        "Lng": 106.688694,
        "Name": "Điện Biên Phủ",
        "Routes": 28,
        "Search": "DBP C63C TQT",
        "Status": "Đang khai thác",
        "StopId": 2464,
        "StopType": "Trụ dừng",
        "Street": "Trần Quốc Thảo",
        "SupportDisability": "",
        "Ward": "",
        "Zone": "Quận 3"
      },
      {
        "AddressNo": 39,
        "Code": "Q3 092",
        "Lat": 10.779394,
        "Lng": 106.690262,
        "Name": "Nguyễn Đình Chiểu",
        "Routes": 28,
        "Search": "NDC 39 TQT",
        "Status": "Đang khai thác",
        "StopId": 2471,
        "StopType": "Trụ dừng",
        "Street": "Trần Quốc Thảo",
        "SupportDisability": "",
        "Ward": "",
        "Zone": "Quận 3"
      },
      {
        "AddressNo": "179C",
        "Code": "Q3 017",
        "Lat": 10.77469,
        "Lng": 106.687202,
        "Name": "Võ Văn Tần",
        "Routes": "28, 65",
        "Search": "VVT 179C CMTT",
        "Status": "Đang khai thác",
        "StopId": 2477,
        "StopType": "Trụ dừng",
        "Street": "Cách Mạng Tháng Tám",
        "SupportDisability": "",
        "Ward": "",
        "Zone": "Quận 3"
      },
      {
        "AddressNo": "Đối diện 19C1",
        "Code": "Q3 040",
        "Lat": 10.780887,
        "Lng": 106.691391,
        "Name": "Nguyễn Đình Chiểu",
        "Routes": 28,
        "Search": "NDC Dd19C1 LQD",
        "Status": "Đang khai thác",
        "StopId": 2481,
        "StopType": "Nhà chờ",
        "Street": "Lê Quý Đôn",
        "SupportDisability": "Có",
        "Ward": "",
        "Zone": "Quận 3"
      },
      {
        "AddressNo": 243,
        "Code": "Q3 015",
        "Lat": 10.777219,
        "Lng": 106.68246,
        "Name": "Công an Quận 3",
        "Routes": "30, 65",
        "Search": "CaQ3 243 CMTT",
        "Status": "Đang khai thác",
        "StopId": 2563,
        "StopType": "Nhà chờ",
        "Street": "Cách Mạng Tháng Tám",
        "SupportDisability": "Có",
        "Ward": "",
        "Zone": "Quận 3"
      },
      {
        "AddressNo": 385,
        "Code": "Q10 087",
        "Lat": 10.780435,
        "Lng": 106.676575,
        "Name": "Ngã ba Hòa Hưng",
        "Routes": "30, 65",
        "Search": "NbHH 385 CMTT",
        "Status": "Đang khai thác",
        "StopId": 2564,
        "StopType": "Biển treo",
        "Street": "Cách Mạng Tháng Tám",
        "SupportDisability": "",
        "Ward": "",
        "Zone": "Quận 10"
      },
      {
        "AddressNo": 1,
        "Code": "Q1 005",
        "Lat": 10.779233,
        "Lng": 106.699154,
        "Name": "Nhà Thờ Đức Bà",
        "Routes": "36, DL02",
        "Search": "NTDB 1 CxP",
        "Status": "Đang khai thác",
        "StopId": 2568,
        "StopType": "Trụ dừng",
        "Street": "Công xã Paris",
        "SupportDisability": "",
        "Ward": "",
        "Zone": "Quận 1"
      },
      {
        "AddressNo": 47,
        "Code": "Q1 110",
        "Lat": 10.778568,
        "Lng": 106.701721,
        "Name": "TTTM Vincom",
        "Routes": 44,
        "Search": "TV 47 LTT",
        "Status": "Đang khai thác",
        "StopId": 2569,
        "StopType": "Trụ dừng",
        "Street": "Lý Tự Trọng",
        "SupportDisability": "",
        "Ward": "",
        "Zone": "Quận 1"
      },
      {
        "AddressNo": 23,
        "Code": "Q1 111",
        "Lat": 10.780644,
        "Lng": 106.703629,
        "Name": "Bệnh viện Nhi Đồng 2",
        "Routes": 44,
        "Search": "BvND2 23 LTT",
        "Status": "Đang khai thác",
        "StopId": 2570,
        "StopType": "Trụ dừng",
        "Street": "Lý Tự Trọng",
        "SupportDisability": "",
        "Ward": "",
        "Zone": "Quận 1"
      },
      {
        "AddressNo": 47,
        "Code": "Q1 083",
        "Lat": 10.780898,
        "Lng": 106.699058,
        "Name": "Diamond Plaza",
        "Routes": "18, 30",
        "Search": "DP 47 LD",
        "Status": "Đang khai thác",
        "StopId": 2692,
        "StopType": "Trụ dừng",
        "Street": "Lê Duẩn",
        "SupportDisability": "",
        "Ward": "",
        "Zone": "Quận 1"
      },
      {
        "AddressNo": 126,
        "Code": "Q1 169",
        "Lat": 10.769425,
        "Lng": 106.687889,
        "Name": "Trường Bùi Thị Xuân",
        "Routes": "",
        "Search": "TBTX 126 BTX",
        "Status": "Tạm ngưng khai thác",
        "StopId": 2693,
        "StopType": "Ô sơn",
        "Street": "Bùi Thị Xuân",
        "SupportDisability": "",
        "Ward": "",
        "Zone": "Quận 1"
      },
      {
        "AddressNo": 34,
        "Code": "Q1 086",
        "Lat": 10.780914,
        "Lng": 106.698704,
        "Name": "Diamond Plaza",
        "Routes": "18, 30",
        "Search": "DP 34 LD",
        "Status": "Đang khai thác",
        "StopId": 2696,
        "StopType": "Trụ dừng",
        "Street": "Lê Duẩn",
        "SupportDisability": "",
        "Ward": "",
        "Zone": "Quận 1"
      },
      {
        "AddressNo": "75A",
        "Code": "Q1 170",
        "Lat": 10.769174,
        "Lng": 106.687912,
        "Name": "Trường Bùi Thị Xuân",
        "Routes": "",
        "Search": "TBTX 75A BTX",
        "Status": "Tạm ngưng khai thác",
        "StopId": 2698,
        "StopType": "Ô sơn",
        "Street": "Bùi Thị Xuân",
        "SupportDisability": "",
        "Ward": "",
        "Zone": "Quận 1"
      },
      {
        "AddressNo": 274,
        "Code": "Q3 104",
        "Lat": 10.778584,
        "Lng": 106.682616,
        "Name": "Ngã sáu Dân Chủ",
        "Routes": "30, 91",
        "Search": "NsDC 274 VTS",
        "Status": "Đang khai thác",
        "StopId": 2708,
        "StopType": "Nhà chờ",
        "Street": "Võ Thị Sáu",
        "SupportDisability": "",
        "Ward": "",
        "Zone": "Quận 3"
      },
      {
        "AddressNo": 144,
        "Code": "Q1 079",
        "Lat": 10.775088,
        "Lng": 106.700768,
        "Name": "Lê Thánh Tôn",
        "Routes": "04, 109, 152, 18, 31, 36, 52, 93",
        "Search": "LTT 144 P",
        "Status": "Đang khai thác",
        "StopId": 2724,
        "StopType": "Trụ dừng",
        "Street": "Pasteur",
        "SupportDisability": "",
        "Ward": "",
        "Zone": "Quận 1"
      },
      {
        "AddressNo": 63,
        "Code": "Q1 109",
        "Lat": 10.777108,
        "Lng": 106.700386,
        "Name": "Sở Tài nguyên Môi trường",
        "Routes": 44,
        "Search": "STnMt 63 LTT",
        "Status": "Đang khai thác",
        "StopId": 2725,
        "StopType": "Nhà chờ",
        "Street": "Lý Tự Trọng",
        "SupportDisability": "",
        "Ward": "",
        "Zone": "Quận 1"
      },
      {
        "AddressNo": 84,
        "Code": "Q1 159",
        "Lat": 10.77831,
        "Lng": 106.699192,
        "Name": "Pasteur",
        "Routes": 36,
        "Search": "P 84 ND",
        "Status": "Đang khai thác",
        "StopId": 2771,
        "StopType": "Trụ dừng",
        "Street": "Nguyễn Du",
        "SupportDisability": "",
        "Ward": "",
        "Zone": "Quận 1"
      },
      {
        "AddressNo": 100,
        "Code": "Q1 160",
        "Lat": 10.777256,
        "Lng": 106.698259,
        "Name": "Nam Kỳ Khởi Nghĩa",
        "Routes": 36,
        "Search": "NKKN 100 ND",
        "Status": "Đang khai thác",
        "StopId": 2774,
        "StopType": "Trụ dừng",
        "Street": "Nguyễn Du",
        "SupportDisability": "",
        "Ward": "",
        "Zone": "Quận 1"
      },
      {
        "AddressNo": "012 Lô F",
        "Code": "Q10 037",
        "Lat": 10.763507,
        "Lng": 106.672455,
        "Name": "Chung cư Ngô Gia Tự",
        "Routes": 38,
        "Search": "CcNGT 012LF SVH",
        "Status": "Đang khai thác",
        "StopId": 2839,
        "StopType": "Trụ dừng",
        "Street": "Sư Vạn Hạnh",
        "SupportDisability": "",
        "Ward": "",
        "Zone": "Quận 10"
      },
      {
        "AddressNo": "021 Lô K",
        "Code": "Q10 040",
        "Lat": 10.76379,
        "Lng": 106.672516,
        "Name": "Chung cư Ngô Gia Tự",
        "Routes": 38,
        "Search": "CcNGT 021LK SVH",
        "Status": "Đang khai thác",
        "StopId": 2845,
        "StopType": "Trụ dừng",
        "Street": "Sư Vạn Hạnh",
        "SupportDisability": "",
        "Ward": "",
        "Zone": "Quận 10"
      },
      {
        "AddressNo": "125-127",
        "Code": "Q1 167",
        "Lat": 10.767312,
        "Lng": 106.698242,
        "Name": "Chợ Dân Sinh",
        "Routes": "39, D4",
        "Search": "CDS 125-127 KC",
        "Status": "Đang khai thác",
        "StopId": 2854,
        "StopType": "Trụ dừng",
        "Street": "Ký Con",
        "SupportDisability": "",
        "Ward": "",
        "Zone": "Quận 1"
      },
      {
        "AddressNo": "48 - 50",
        "Code": "Q1 168",
        "Lat": 10.766237,
        "Lng": 106.699466,
        "Name": "Chợ Dân Sinh",
        "Routes": "D4",
        "Search": "CDS 48-50 KC",
        "Status": "Đang khai thác",
        "StopId": 2888,
        "StopType": "Trụ dừng",
        "Street": "Ký Con",
        "SupportDisability": "",
        "Ward": "",
        "Zone": "Quận 1"
      },
      {
        "AddressNo": "189 - 191",
        "Code": "Q1 106",
        "Lat": 10.773244,
        "Lng": 106.696228,
        "Name": "Khách sạn Golden",
        "Routes": 44,
        "Search": "KsG 189-191 LTT",
        "Status": "Đang khai thác",
        "StopId": 2951,
        "StopType": "Trụ dừng",
        "Street": "Lý Tự Trọng",
        "SupportDisability": "",
        "Ward": "Phường Bến Thành",
        "Zone": "Quận 1"
      },
      {
        "AddressNo": 109,
        "Code": "Q1 107",
        "Lat": 10.77421,
        "Lng": 106.697586,
        "Name": "Nguyễn Trung Trực",
        "Routes": "",
        "Search": "NTT 109 LTT",
        "Status": "Tạm ngưng khai thác",
        "StopId": 2952,
        "StopType": "Ô sơn",
        "Street": "Lý Tự Trọng",
        "SupportDisability": "",
        "Ward": "",
        "Zone": "Quận 1"
      },
      {
        "AddressNo": 69,
        "Code": "Q1 108",
        "Lat": 10.775442,
        "Lng": 106.698853,
        "Name": "Thư Viện Khoa Học Tổng Hợp",
        "Routes": 44,
        "Search": "TVKHTH 69 LTT",
        "Status": "Đang khai thác",
        "StopId": 2954,
        "StopType": "Nhà chờ",
        "Street": "Lý Tự Trọng",
        "SupportDisability": "",
        "Ward": "",
        "Zone": "Quận 1"
      },
      {
        "AddressNo": 37,
        "Code": "Q1 157",
        "Lat": 10.764468,
        "Lng": 106.69178,
        "Name": "Trần Hưng Đạo",
        "Routes": "45, 53, 56",
        "Search": "THD 37 NCT",
        "Status": "Đang khai thác",
        "StopId": 2971,
        "StopType": "Trụ dừng",
        "Street": "Nguyễn Cư Trinh",
        "SupportDisability": "",
        "Ward": "",
        "Zone": "Quận 1"
      },
      {
        "AddressNo": 118,
        "Code": "Q1 154",
        "Lat": 10.763844,
        "Lng": 106.689793,
        "Name": "Cống Quỳnh",
        "Routes": "45, 56",
        "Search": "CQ 118 NCT",
        "Status": "Đang khai thác",
        "StopId": 2973,
        "StopType": "Trụ dừng",
        "Street": "Nguyễn Cư Trinh",
        "SupportDisability": "",
        "Ward": "",
        "Zone": "Quận 1"
      },
      {
        "AddressNo": "34 - 36",
        "Code": "Q1 153",
        "Lat": 10.764588,
        "Lng": 106.691719,
        "Name": "Nguyễn Cư Trinh",
        "Routes": "45, 56",
        "Search": "NCT 34-36 NCT",
        "Status": "Đang khai thác",
        "StopId": 2976,
        "StopType": "Trụ dừng",
        "Street": "Nguyễn Cư Trinh",
        "SupportDisability": "",
        "Ward": "",
        "Zone": "Quận 1"
      },
      {
        "AddressNo": "Đối diện 15 (dd 15/3)",
        "Code": "Q1 035",
        "Lat": 10.780908,
        "Lng": 106.704894,
        "Name": "Chu Mạnh Trinh",
        "Routes": 44,
        "Search": "CMT Dd15(15/3) LTT",
        "Status": "Đang khai thác",
        "StopId": 3063,
        "StopType": "Nhà chờ",
        "Street": "Lê Thánh Tôn",
        "SupportDisability": "",
        "Ward": "",
        "Zone": "Quận 1"
      },
      {
        "AddressNo": 32,
        "Code": "Q1 036",
        "Lat": 10.779001,
        "Lng": 106.703328,
        "Name": "Sở Kế Hoạch & Đầu Tư",
        "Routes": 44,
        "Search": "SKH&amp;DT 32 LTT",
        "Status": "Đang khai thác",
        "StopId": 3065,
        "StopType": "Trụ dừng",
        "Street": "Lê Thánh Tôn",
        "SupportDisability": "",
        "Ward": "",
        "Zone": "Quận 1"
      },
      {
        "AddressNo": "Đối diện số 179",
        "Code": "Q1 121",
        "Lat": 10.768434,
        "Lng": 106.695335,
        "Name": "Trần Hưng Đạo",
        "Routes": "140, 28, 46, 69, 72",
        "Search": "THD Dds179 NTH",
        "Status": "Đang khai thác",
        "StopId": 3080,
        "StopType": "Nhà chờ",
        "Street": "Nguyễn Thái Học",
        "SupportDisability": "",
        "Ward": "Phường Phạm Ngũ Lão",
        "Zone": "Quận 1"
      },
      {
        "AddressNo": 516,
        "Code": "Q10 022",
        "Lat": 10.766764,
        "Lng": 106.674827,
        "Name": "Ngã bảy Lý Thái Tổ",
        "Routes": 91,
        "Search": "NbLTT 516 LHP",
        "Status": "Đang khai thác",
        "StopId": 3171,
        "StopType": "Trụ dừng",
        "Street": "Lê Hồng Phong",
        "SupportDisability": "",
        "Ward": "",
        "Zone": "Quận 10"
      },
      {
        "AddressNo": "593-595",
        "Code": "Q10 017",
        "Lat": 10.770045,
        "Lng": 106.673393,
        "Name": "Công An Phường 10",
        "Routes": 91,
        "Search": "CAP10 593-595 LHP",
        "Status": "Đang khai thác",
        "StopId": 3177,
        "StopType": "Biển treo",
        "Street": "Lê Hồng Phong",
        "SupportDisability": "",
        "Ward": "",
        "Zone": "Quận 10"
      },
      {
        "AddressNo": 505,
        "Code": "Q10 019",
        "Lat": 10.766851,
        "Lng": 106.674652,
        "Name": "Ngã bảy Lý Thái Tổ",
        "Routes": 91,
        "Search": "NbLTT 505 LHP",
        "Status": "Đang khai thác",
        "StopId": 3178,
        "StopType": "Trụ dừng",
        "Street": "Lê Hồng Phong",
        "SupportDisability": "",
        "Ward": "",
        "Zone": "Quận 10"
      },
      {
        "AddressNo": 126,
        "Code": "Q3 008",
        "Lat": 10.77753,
        "Lng": 106.682455,
        "Name": "Công trường Dân Chủ",
        "Routes": 65,
        "Search": "CtDC 126 CMTT",
        "Status": "Đang khai thác",
        "StopId": 3477,
        "StopType": "Nhà chờ",
        "Street": "Cách Mạng Tháng Tám",
        "SupportDisability": "",
        "Ward": "",
        "Zone": "Quận 3"
      },
      {
        "AddressNo": "40 - 42",
        "Code": "Q3 006",
        "Lat": 10.774068,
        "Lng": 106.688946,
        "Name": "Võ Văn Tần",
        "Routes": "65, 69",
        "Search": "VVT 40-42 CMTT",
        "Status": "Đang khai thác",
        "StopId": 3478,
        "StopType": "Trụ dừng",
        "Street": "Cách Mạng Tháng Tám",
        "SupportDisability": "",
        "Ward": "Phường 06",
        "Zone": "Quận 3"
      },
      {
        "AddressNo": "10-12",
        "Code": "Q1 053",
        "Lat": 10.772266,
        "Lng": 106.705935,
        "Name": "Nguyễn Huệ",
        "Routes": "",
        "Search": "NH 10-12 NH",
        "Status": "Đang khai thác",
        "StopId": 3690,
        "StopType": "Nhà chờ",
        "Street": "Nguyễn Huệ",
        "SupportDisability": "",
        "Ward": "",
        "Zone": "Quận 1"
      },
      {
        "AddressNo": 84,
        "Code": "Q1 193",
        "Lat": 10.771006,
        "Lng": 106.703108,
        "Name": "Chợ Cũ",
        "Routes": "01, 03, 19, 45, 56, 86, 88",
        "Search": "CC 84 HN",
        "Status": "Đang khai thác",
        "StopId": 3691,
        "StopType": "Nhà chờ",
        "Street": "Hàm Nghi",
        "SupportDisability": "",
        "Ward": "Phường Bến Nghé",
        "Zone": "Quận 1"
      },
      {
        "AddressNo": "Hàm Nghi 4",
        "Code": "Q1 102",
        "Lat": 10.771043,
        "Lng": 106.699514,
        "Name": "Trạm Trung chuyển trên đường Hàm Nghi",
        "Routes": "01, 102, 44, 65, 86",
        "Search": "TTctdHN HN4 HN",
        "Status": "Đang khai thác",
        "StopId": 4223,
        "StopType": "Nhà chờ",
        "Street": "Hàm Nghi",
        "SupportDisability": "",
        "Ward": "Phường Bến Thành",
        "Zone": "Quận 1"
      },
      {
        "AddressNo": 171,
        "Code": "Q1 172",
        "Lat": 10.776782,
        "Lng": 106.702191,
        "Name": "Trung tâm VinCom",
        "Routes": "",
        "Search": "TtV 171 DK",
        "Status": "Đã hủy",
        "StopId": 4224,
        "StopType": "Trụ dừng",
        "Street": "Đồng Khởi",
        "SupportDisability": "",
        "Ward": "",
        "Zone": "Quận 1"
      },
      {
        "AddressNo": "92-96",
        "Code": "Q1 054",
        "Lat": 10.775127,
        "Lng": 106.702883,
        "Name": "Lê Lợi",
        "Routes": "DL01, DL02",
        "Search": "LL 92-96 NH",
        "Status": "Đang khai thác",
        "StopId": 4261,
        "StopType": "Nhà chờ",
        "Street": "Nguyễn Huệ",
        "SupportDisability": "",
        "Ward": "",
        "Zone": "Quận 1"
      },
      {
        "AddressNo": 70,
        "Code": "Q1 037",
        "Lat": 10.777683,
        "Lng": 106.702175,
        "Name": "Trung tâm Vincom",
        "Routes": 44,
        "Search": "TtV 70 LTT",
        "Status": "Đang khai thác",
        "StopId": 4262,
        "StopType": "Nhà chờ",
        "Street": "Lê Thánh Tôn",
        "SupportDisability": "",
        "Ward": "",
        "Zone": "Quận 1"
      },
      {
        "AddressNo": "86Bis",
        "Code": "Q1 038",
        "Lat": 10.77537,
        "Lng": 106.700136,
        "Name": "Phố đi bộ Nguyễn Huệ",
        "Routes": 44,
        "Search": "PdbNH 86Bis LTT",
        "Status": "Đang khai thác",
        "StopId": 4263,
        "StopType": "Nhà chờ",
        "Street": "Lê Thánh Tôn",
        "SupportDisability": "",
        "Ward": "",
        "Zone": "Quận 1"
      },
      {
        "AddressNo": "Đền Thờ Ấn Giáo",
        "Code": "Q1 078",
        "Lat": 10.773595,
        "Lng": 106.70139,
        "Name": "Đền Thờ Ấn Giáo, Pasteur",
        "Routes": "04, 109, 152, 18, 31, 36, 52, 93",
        "Search": "DTAGP DTAG P",
        "Status": "Đang khai thác",
        "StopId": 4271,
        "StopType": "Nhà chờ",
        "Street": "Pasteur",
        "SupportDisability": "",
        "Ward": "",
        "Zone": "Quận 1"
      },
      {
        "AddressNo": 158,
        "Code": "Q1 080",
        "Lat": 10.777089,
        "Lng": 106.699657,
        "Name": "Lý Tự Trọng",
        "Routes": "04, 109, 152, 18, 31, 36, 52, 93",
        "Search": "LTT 158 P",
        "Status": "Đang khai thác",
        "StopId": 4272,
        "StopType": "Trụ dừng",
        "Street": "Pasteur",
        "SupportDisability": "",
        "Ward": "",
        "Zone": "Quận 1"
      },
      {
        "AddressNo": 178,
        "Code": "Q1 081",
        "Lat": 10.778307999999999,
        "Lng": 106.698333,
        "Name": "Lê Duẫn",
        "Routes": "04, 109, 152, 18, 31, 36, 52, 93",
        "Search": "LD 178 P",
        "Status": "Đang khai thác",
        "StopId": 4273,
        "StopType": "Trụ dừng",
        "Street": "Pasteur",
        "SupportDisability": "",
        "Ward": "",
        "Zone": "Quận 1"
      },
      {
        "AddressNo": 184,
        "Code": "Q1 082",
        "Lat": 10.779782,
        "Lng": 106.696659,
        "Name": "Nguyễn Thị Minh Khai",
        "Routes": "04, 109, 152, 31, 93",
        "Search": "NTMK 184 P",
        "Status": "Đang khai thác",
        "StopId": 4274,
        "StopType": "Nhà chờ",
        "Street": "Pasteur",
        "SupportDisability": "",
        "Ward": "",
        "Zone": "Quận 1"
      },
      {
        "AddressNo": "Hàm Nghi 15 (99)",
        "Code": "Q1 161",
        "Lat": 10.77079,
        "Lng": 106.70101,
        "Name": "Trạm Trung chuyển trên đường Hàm Nghi",
        "Routes": "102, 20, 86",
        "Search": "TTctdHN HN15( HN",
        "Status": "Đang khai thác",
        "StopId": 4275,
        "StopType": "Nhà chờ",
        "Street": "Hàm Nghi",
        "SupportDisability": "",
        "Ward": "Phường Nguyễn Thái Bình",
        "Zone": "Quận 1"
      },
      {
        "AddressNo": "Nhà hát Thành phố",
        "Code": "MRT1_2",
        "Lat": 10.776129,
        "Lng": 106.703033,
        "Name": "Nhà hát Thành phố",
        "Routes": "DL02",
        "Search": "NhTp NhTp DK",
        "Status": "Chưa khai thác",
        "StopId": 7004,
        "StopType": "Ga Metro Số 1",
        "Street": "Đồng Khởi",
        "SupportDisability": "Có",
        "Ward": "Phường Bến Nghé",
        "Zone": "Quận 1"
      },
      {
        "AddressNo": "Tao Đàn",
        "Code": "MRT2_2",
        "Lat": 10.773093,
        "Lng": 106.690625,
        "Name": "Tao Đàn",
        "Routes": "",
        "Search": "TD TD CMTT",
        "Status": "Chưa khai thác",
        "StopId": 7018,
        "StopType": "Ga Metro Số 2",
        "Street": "Cách Mạng Tháng Tám",
        "SupportDisability": "Có",
        "Ward": "",
        "Zone": "Quận 1"
      },
      {
        "AddressNo": "127-129",
        "Code": "Q1 174",
        "Lat": 10.775407,
        "Lng": 106.703709,
        "Name": "Nhà hát Thành phố",
        "Routes": "",
        "Search": "NhTp 127-129 DK",
        "Status": "Đã hủy",
        "StopId": 7078,
        "StopType": "Trụ dừng",
        "Street": "Đồng Khởi",
        "SupportDisability": "Có",
        "Ward": "Phường Bến Nghé",
        "Zone": "Quận 1"
      },
      {
        "AddressNo": "Hàm nghi 3",
        "Code": "Q1 178",
        "Lat": 10.770985,
        "Lng": 106.700758,
        "Name": "Trạm Trung chuyển trên đường Hàm Nghi",
        "Routes": "18, 31, 36, 44, 65",
        "Search": "TTctdHN Hn3 HN",
        "Status": "Đang khai thác",
        "StopId": 7264,
        "StopType": "Nhà chờ",
        "Street": "Hàm Nghi",
        "SupportDisability": "Có",
        "Ward": "Phường Nguyễn Thái Bình",
        "Zone": "Quận 1"
      },
      {
        "AddressNo": "Hàm nghi 5",
        "Code": "Q1 179",
        "Lat": 10.770911,
        "Lng": 106.700259,
        "Name": "Trạm Trung chuyển trên đường Hàm Nghi",
        "Routes": "03, 45, 53, 61-6",
        "Search": "TTctdHN Hn5 HN",
        "Status": "Đang khai thác",
        "StopId": 7265,
        "StopType": "Nhà chờ",
        "Street": "Hàm Nghi",
        "SupportDisability": "Có",
        "Ward": "Phường Nguyễn Thái Bình",
        "Zone": "Quận 1"
      },
      {
        "AddressNo": "Hàm Nghi 7",
        "Code": "Q1 180",
        "Lat": 10.770896,
        "Lng": 106.700807,
        "Name": "Trạm Trung chuyển trên đường Hàm Nghi",
        "Routes": "01, 03, 04, 19, 56, 88",
        "Search": "TTctdHN HN7 HN",
        "Status": "Đang khai thác",
        "StopId": 7266,
        "StopType": "Nhà chờ",
        "Street": "Hàm Nghi",
        "SupportDisability": "Có",
        "Ward": "Phường Nguyễn Thái Bình",
        "Zone": "Quận 1"
      },
      {
        "AddressNo": "Hàm Nghi 11 (115)",
        "Code": "Q1 181",
        "Lat": 10.770801,
        "Lng": 106.700571,
        "Name": "Trạm Trung chuyển trên đường Hàm Nghi",
        "Routes": 38,
        "Search": "TTctdHN HN11( HN",
        "Status": "Đang khai thác",
        "StopId": 7267,
        "StopType": "Nhà chờ",
        "Street": "Hàm Nghi",
        "SupportDisability": "Có",
        "Ward": "Phường Nguyễn Thái Bình",
        "Zone": "Quận 1"
      },
      {
        "AddressNo": "Hàm Nghi 13 (102)",
        "Code": "Q1 182",
        "Lat": 10.77079,
        "Lng": 106.70086,
        "Name": "Trạm Trung chuyển trên đường Hàm Nghi",
        "Routes": "34, 39",
        "Search": "TTctdHN HN13( HN",
        "Status": "Đang khai thác",
        "StopId": 7268,
        "StopType": "Nhà chờ",
        "Street": "Hàm Nghi",
        "SupportDisability": "Có",
        "Ward": "Phường Nguyễn Thái Bình",
        "Zone": "Quận 1"
      },
      {
        "AddressNo": "Hàm Nghi 8",
        "Code": "Q1 183",
        "Lat": 10.771117,
        "Lng": 106.699514,
        "Name": "Trạm Trung chuyển trên đường Hàm Nghi",
        "Routes": "03, 19, 56, 88",
        "Search": "TTctdHN HN8 HN",
        "Status": "Đang khai thác",
        "StopId": 7269,
        "StopType": "Nhà chờ",
        "Street": "Hàm Nghi",
        "SupportDisability": "Có",
        "Ward": "Phường Bến Thành",
        "Zone": "Quận 1"
      },
      {
        "AddressNo": "Hàm Nghi 6",
        "Code": "Q1 184",
        "Lat": 10.771096,
        "Lng": 106.699948,
        "Name": "Trạm Trung chuyển trên đường Hàm Nghi",
        "Routes": "03, 53, 61-6, D4",
        "Search": "TTctdHN HN6 HN",
        "Status": "Đang khai thác",
        "StopId": 7270,
        "StopType": "Nhà chờ",
        "Street": "Hàm Nghi",
        "SupportDisability": "Có",
        "Ward": "Phường Bến Thành",
        "Zone": "Quận 1"
      },
      {
        "AddressNo": "Hàm Nghi 12 (136)",
        "Code": "Q1 185",
        "Lat": 10.771233,
        "Lng": 106.700002,
        "Name": "Trạm Trung chuyển trên đường Hàm Nghi",
        "Routes": "109, 152",
        "Search": "TTctdHN HN12( HN",
        "Status": "Đang khai thác",
        "StopId": 7271,
        "StopType": "Nhà chờ",
        "Street": "Hàm Nghi",
        "SupportDisability": "Có",
        "Ward": "Phường Bến Thành",
        "Zone": "Quận 1"
      },
      {
        "AddressNo": "Hàm Nghi 14 (138)",
        "Code": "Q1 186",
        "Lat": 10.771254,
        "Lng": 106.699525,
        "Name": "Trạm Trung chuyển trên đường Hàm Nghi",
        "Routes": "31, 36",
        "Search": "TTctdHN HN14( HN",
        "Status": "Đang khai thác",
        "StopId": 7272,
        "StopType": "Nhà chờ",
        "Street": "Hàm Nghi",
        "SupportDisability": "Có",
        "Ward": "Phường Bến Thành",
        "Zone": "Quận 1"
      },
      {
        "AddressNo": "Đối diện cây xanh số 105",
        "Code": "Q1 187",
        "Lat": 10.770964,
        "Lng": 106.695946,
        "Name": "Khách sạn New World",
        "Routes": "03, 04, 102, 109, 18, 19, 20, 34, 36, 39, 52, 53, 75, 86, 88, 93, D4",
        "Search": "KsNW Ddcxs105 LL",
        "Status": "Đang khai thác",
        "StopId": 7273,
        "StopType": "Ô sơn",
        "Street": "Lê Lai",
        "SupportDisability": "Có",
        "Ward": "Phường Bến Thành",
        "Zone": "Quận 1"
      },
      {
        "AddressNo": "94-96",
        "Code": "Q1 188",
        "Lat": 10.769952,
        "Lng": 106.693495,
        "Name": "Nguyễn Thị Nghĩa",
        "Routes": "03, 04, 102, 109, 140, 18, 19, 20, 34, 36, 39, 52, 53, 69, 72, 75, 86, 88, 93, D4",
        "Search": "NTN 94-96 LL",
        "Status": "Đang khai thác",
        "StopId": 7274,
        "StopType": "Trụ dừng",
        "Street": "Lê Lai",
        "SupportDisability": "Có",
        "Ward": "Phường Bến Thành",
        "Zone": "Quận 1"
      },
      {
        "AddressNo": "202-204",
        "Code": "Q1 189",
        "Lat": 10.768761,
        "Lng": 106.690469,
        "Name": "Tôn Thất Tùng",
        "Routes": "03, 04, 102, 109, 140, 18, 19, 20, 34, 36, 39, 52, 53, 69, 72, 75, 86, 88, 93, D4",
        "Search": "TTT 202-204 LL",
        "Status": "Đang khai thác",
        "StopId": 7275,
        "StopType": "Trụ dừng",
        "Street": "Lê Lai",
        "SupportDisability": "Có",
        "Ward": "Phường Bến Thành",
        "Zone": "Quận 1"
      },
      {
        "AddressNo": "277-279-275Y",
        "Code": "Q1 190",
        "Lat": 10.76767,
        "Lng": 106.690941,
        "Name": "Tôn Thất Tùng",
        "Routes": "03, 04, 102, 109, 140, 18, 19, 20, 28, 34, 36, 39, 46, 52, 65, 69, 72, 75, 86, 88, 93, D4",
        "Search": "TTT 277-279-275Y PNL",
        "Status": "Đang khai thác",
        "StopId": 7276,
        "StopType": "Trụ dừng",
        "Street": "Phạm Ngũ Lão",
        "SupportDisability": "Có",
        "Ward": "Phường Phạm Ngũ Lão",
        "Zone": "Quận 1"
      },
      {
        "AddressNo": 187,
        "Code": "Q1 191",
        "Lat": 10.768788,
        "Lng": 106.693699,
        "Name": "Nguyễn Thị Nghĩa",
        "Routes": "03, 04, 102, 109, 140, 18, 19, 20, 28, 34, 36, 39, 46, 52, 65, 69, 72, 93, D4, DL01, DL02",
        "Search": "NTN 187 PNL",
        "Status": "Đang khai thác",
        "StopId": 7277,
        "StopType": "Trụ dừng",
        "Street": "Phạm Ngũ Lão",
        "SupportDisability": "Có",
        "Ward": "Phường Phạm Ngũ Lão",
        "Zone": "Quận 1"
      },
      {
        "AddressNo": "Trường Emst Thalmann",
        "Code": "Q1 192",
        "Lat": 10.769504,
        "Lng": 106.695587,
        "Name": "Trường Emst Thalmann",
        "Routes": "03, 04, 102, 109, 18, 19, 20, 28, 34, 36, 39, 52, 65, 69, 93, D4",
        "Search": "TET TET PNL",
        "Status": "Đang khai thác",
        "StopId": 7278,
        "StopType": "Nhà chờ",
        "Street": "Phạm Ngũ Lão",
        "SupportDisability": "Có",
        "Ward": "Phường Phạm Ngũ Lão",
        "Zone": "Quận 1"
      },
      {
        "AddressNo": "TH le ngoc han",
        "Code": "BX_THlengochan",
        "Lat": 10.772544,
        "Lng": 106.689983,
        "Name": "TH Le Ngoc Han",
        "Routes": "",
        "Search": "TLNH Tlnh Tlnh",
        "Status": "Đang khai thác",
        "StopId": 7513,
        "StopType": "Bến xe",
        "Street": "TH le ngoc han",
        "SupportDisability": "Có",
        "Ward": "",
        "Zone": "Học Sinh"
      },
      {
        "AddressNo": "Th le ngoc han",
        "Code": "BX_THlengochan1",
        "Lat": 10.772282,
        "Lng": 106.693264,
        "Name": "TH Le Ngoc Han",
        "Routes": "",
        "Search": "TLNH Tlnh Tlnh",
        "Status": "Đang khai thác",
        "StopId": 7514,
        "StopType": "Bến xe",
        "Street": "Th le ngoc han",
        "SupportDisability": "Có",
        "Ward": "",
        "Zone": "Học Sinh"
      },
      {
        "AddressNo": "huyen tran cong chua",
        "Code": "BX_huyentrancongchua",
        "Lat": 10.776231,
        "Lng": 106.69371,
        "Name": "Huyen Tran Cong Chua",
        "Routes": "",
        "Search": "HTCC htcc htcc",
        "Status": "Đang khai thác",
        "StopId": 7515,
        "StopType": "Bến xe",
        "Street": "huyen tran cong chua",
        "SupportDisability": "Có",
        "Ward": "",
        "Zone": "Học Sinh"
      },
      {
        "AddressNo": 56,
        "Code": "Q1 196",
        "Lat": 10.769251,
        "Lng": 106.699669,
        "Name": "Bảo tàng Mỹ Thuật",
        "Routes": "01, 102, 34, 38, 39, 44, 86, D4",
        "Search": "BtMT 56 NTB",
        "Status": "Đang khai thác",
        "StopId": 7564,
        "StopType": "Trụ dừng",
        "Street": "Nguyễn Thái Bình",
        "SupportDisability": "Có",
        "Ward": "Phường Bến Nghé",
        "Zone": "Quận 1"
      },
      {
        "AddressNo": "đối diện 162-164",
        "Code": "Q1 199",
        "Lat": 10.76873,
        "Lng": 106.701504,
        "Name": "Sở Giao dịch chứng khoáng",
        "Routes": "D4",
        "Search": "SGdck dd162-164 NCT",
        "Status": "Đang khai thác",
        "StopId": 7567,
        "StopType": "Trụ dừng",
        "Street": "Nguyễn Công Trứ",
        "SupportDisability": "Có",
        "Ward": "Phường Bến Nghé",
        "Zone": "Quận 1"
      },
      {
        "AddressNo": "81-83-83B",
        "Code": "Q1 200",
        "Lat": 10.77078,
        "Lng": 106.703038,
        "Name": "Giao lộ Hàm Nghi - Tôn Thất Đạm",
        "Routes": 3,
        "Search": "GlHN-TTD 81-83-83B HN",
        "Status": "Đang khai thác",
        "StopId": 7588,
        "StopType": "Nhà chờ",
        "Street": "Hàm Nghi",
        "SupportDisability": "",
        "Ward": "Phường Nguyễn Thái Bình",
        "Zone": "Quận 1"
      },
      {
        "AddressNo": 2,
        "Code": "Q3 120",
        "Lat": 10.77889,
        "Lng": 106.693554,
        "Name": "Trường THCS Lê Quý Đôn",
        "Routes": 28,
        "Search": "TTLQD 2 LQD",
        "Status": "Đang khai thác",
        "StopId": 7589,
        "StopType": "Nhà chờ",
        "Street": "Lê Quý Đôn",
        "SupportDisability": "Có",
        "Ward": "Phường 01",
        "Zone": "Quận 3"
      },
      {
        "AddressNo": "Cây xanh số 6",
        "Code": "Q1 201",
        "Lat": 10.779464,
        "Lng": 106.699787,
        "Name": "Công xã Paris",
        "Routes": "DL01",
        "Search": "CxP Cxs6 CxP",
        "Status": "Đang khai thác",
        "StopId": 7614,
        "StopType": "Ô sơn",
        "Street": "Công xã Paris",
        "SupportDisability": "",
        "Ward": "Phường Bến Nghé",
        "Zone": "Quận 1"
      },
      {
        "AddressNo": "Cây xanh số 10",
        "Code": "Q1 203",
        "Lat": 10.778405,
        "Lng": 106.696499,
        "Name": "Dinh Độc Lập",
        "Routes": "DL01",
        "Search": "DDL Cxs10 LD",
        "Status": "Đang khai thác",
        "StopId": 7616,
        "StopType": "Ô sơn",
        "Street": "Lê Duẩn",
        "SupportDisability": "",
        "Ward": "Phường Bến Nghé",
        "Zone": "Quận 1"
      },
      {
        "AddressNo": "số 1A (5)",
        "Code": "Q1 025",
        "Lat": 10.777214,
        "Lng": 106.706944,
        "Name": "Bảo tàng Tôn Đức Thắng",
        "Routes": 56,
        "Search": "BtTDT s1A( TDT",
        "Status": "Đang khai thác",
        "StopId": 7677,
        "StopType": "Trụ dừng",
        "Street": "Tôn Đức Thắng",
        "SupportDisability": "",
        "Ward": "Phường Bến Nghé",
        "Zone": "Quận 1"
      },
      {
        "AddressNo": "Ga tàu thuỷ Bạch Đằng",
        "Code": "SWB1_1",
        "Lat": 10.775264,
        "Lng": 106.706901,
        "Name": "Ga tàu thuỷ Bạch Đằng",
        "Routes": "SWB1",
        "Search": "GttBD GttBD TDT",
        "Status": "Chưa khai thác",
        "StopId": 7682,
        "StopType": "Trạm tạm",
        "Street": "Tôn Đức Thắng",
        "SupportDisability": "Có",
        "Ward": "Phường Bến Nghé",
        "Zone": "Quận 1"
      },
      {
        "AddressNo": "93-95",
        "Code": "Q1 1950",
        "Lat": 10.770875,
        "Lng": 106.701354,
        "Name": "Nam Kỳ Khởi Nghĩa",
        "Routes": "01, 03, 04, 19, 88",
        "Search": "NKKN 93-95 HN",
        "Status": "Đang khai thác",
        "StopId": 7693,
        "StopType": "Nhà chờ",
        "Street": "Hàm Nghi",
        "SupportDisability": "Có",
        "Ward": "Phường Nguyễn Thái Bình",
        "Zone": "Quận 1"
      },