[
  {
    "StopId": 1,
    "Code": "BX 06",
    "Name": "Bến xe Mai Anh Đào",
    "StopType": "Bến xe",
    "Zone": "Đà Lạt",
    "Ward": "Phường 8",
    "AddressNo": "207",
    "Street": "Mai Anh Đào",
    "SupportDisability": "",
    "Status": "Đang khai thác",
    "Lng": 108.44132225552454,
    "Lat": 11.975417526335619,
    "Search": "",
    "Routes": "01"
  },
  {
    "StopId": 2,
    "Code": "BX 06",
    "Name": "Đường Phù Đổng Thiên Vương",
    "StopType": "Trạm dừng",
    "Zone": "Đà Lạt",
    "Ward": "Phường 8",
    "AddressNo": "207",
    "Street": "Phù Đổng Thiên Vương",
    "SupportDisability": "",
    "Status": "Đang khai thác",
    "Lng": 108.44317129604643,
    "Lat": 11.964024993293565,
    "Search": "",
    "Routes": "01"
  },
  {
    "StopId": 3,
    "Code": "Q1 020",
    "Name": "Đường Đinh Tiên Hoàng",
    "StopType": "Trạm dừng",
    "Zone": "Đà Lạt",
    "Ward": "Phường 2",
    "AddressNo": "2-4",
    "Street": "Đinh Tiên Hoàng",
    "SupportDisability": "",
    "Status": "Đang khai thác",
    "Lng": 108.44252657431416,
    "Lat": 11.950879192861747,
    "Search": "",
    "Routes": "01, 03, 123, 124, 19, 45, 56, 61-6, 88"
  },
  {
    "StopId": 4,
    "Code": "Q1 020",
    "Name": "Đường Nguyễn Thái Học",
    "StopType": "Trạm dừng",
    "Zone": "Đà Lạt",
    "Ward": "Phường 2",
    "AddressNo": "2-4",
    "Street": "Nguyễn Thái Học ",
    "SupportDisability": "",
    "Status": "Đang khai thác",
    "Lng": 108.42924674836861,
    "Lat": 11.954458390891254,
    "Search": "",
    "Routes": "01, 03, 123, 124, 19, 45, 56, 61-6, 88"
  },

  {
    "StopId": 6,
    "Code": "Q1 194",
    "Name": "Khu Hoà Bình",
    "StopType": "Nhà chờ",
    "Zone": "Đà Lạt",
    "Ward": "Phường 1",
    "AddressNo": "04",
    "Street": "Khu Hoà Bình",
    "SupportDisability": "",
    "Status": "Đang khai thác",
    "Lng": 108.43611036506525,
    "Lat": 11.943378410124454,
    "Search": "TCT TCT HN",
    "Routes": "01, 03, 102, 19, 20, 34, 38, 39, 45, 56, 75, 86, 88, D4"
  },
  {
    "StopId": 5,
    "Code": "Q1 194",
    "Name": "Đường Lê Đại Hành ",
    "StopType": "Nhà chờ",
    "Zone": "Đà Lạt",
    "Ward": "Phường 4",
    "AddressNo": "04",
    "Street": "Lê Đại Hành ",
    "SupportDisability": "",
    "Status": "Đang khai thác",
    "Lng": 108.4377394782863,
    "Lat": 11.93843314160475,
    "Search": "TCT TCT HN",
    "Routes": "01, 03, 102, 19, 20, 34, 38, 39, 45, 56, 75, 86, 88, D4"
  },
  {
    "StopId": 8,
    "Code": "Q1 124",
    "Name": "Đường Trần Phú",
    "StopType": "Nhà chờ",
    "Zone": "Đà Lạt",
    "Ward": "Phường 4",
    "AddressNo": "8",
    "Street": "Trần Phú",
    "SupportDisability": "",
    "Status": "Đang khai thác",
    "Lng": 108.43519935972103,
    "Lat": 11.93653586839263,
    "Search": "TET 8 THD",
    "Routes": "01, 139, 28, 45, 69"
  },

  {
    "StopId": 9,
    "Code": "Q1 125",
    "Name": "Đường 3/4",
    "StopType": "Nhà chờ",
    "Zone": "Đà Lạt",
    "Ward": "Phường 3",
    "AddressNo": "10",
    "Street": "3/4",
    "SupportDisability": "",
    "Status": "Đang khai thác",
    "Lng": 108.44582020349527,
    "Lat": 11.932948869113625,
    "Search": "KTHD 10 THD",
    "Routes": "01, 139, 152, 45, 56"
  },
  {
    "StopId": 10,
    "Code": "Q1 126",
    "Name": "Bến xe Đức Trọng",
    "StopType": "Bến xe",
    "Zone": "Đức Trọng",
    "Ward": "Liên Nghĩa",
    "AddressNo": "735",
    "Street": "Quốc lộ 20",
    "SupportDisability": "",
    "Status": "Đang khai thác",
    "Lng": 108.36949199513815,
    "Lat": 11.726317022635154,
    "Search": "RHD 112 THD",
    "Routes": "01, 139, 152, 45, 56"
  },
  {
    "StopId": 9,
    "Code": "Q1 125",
    "Name": "Ngã 3 Thác Pongour",
    "StopType": "Nhà chờ",
    "Zone": "Đà Lạt",
    "Ward": "Phường 3",
    "AddressNo": "10",
    "Street": "3/4",
    "SupportDisability": "",
    "Status": "Đang khai thác",
    "Lng": 108.31431917301411,
    "Lat": 11.665869407460276,
    "Search": "KTHD 10 THD",
    "Routes": "01, 139, 152, 45, 56"
  },

  {
    "StopId": 10,
    "Code": "Q1 126",
    "Name": "Ngã 3 Tà Hine - Ninh Gia",
    "StopType": "Bến xe",
    "Zone": "Đức Trọng",
    "Ward": "Ninh Gia",
    "AddressNo": "735",
    "Street": "Quốc lộ 20",
    "SupportDisability": "",
    "Status": "Đang khai thác",
    "Lng": 108.30468489608293,
    "Lat": 11.632132060945164,
    "Search": "RHD 112 THD",
    "Routes": "01, 139, 152, 45, 56"
  },
  {
    "StopId": 10,
    "Code": "Q1 126",
    "Name": "Chợ Tam Bố",
    "StopType": "Bến xe",
    "Zone": "Di Linh",
    "Ward": "Tam Bố",
    "AddressNo": "735",
    "Street": "Quốc lộ 20",
    "SupportDisability": "",
    "Status": "Đang khai thác",
    "Lng": 108.2198690853879,
    "Lat": 11.620465002108501,
    "Search": "RHD 112 THD",
    "Routes": "01, 139, 152, 45, 56"
  },
  {
    "StopId": 10,
    "Code": "Q1 126",
    "Name": "Nhà Thờ Giáo Xứ Phú Hiệp",
    "StopType": "Bến xe",
    "Zone": "Di Linh",
    "Ward": "Gia Hiệp",
    "AddressNo": "735",
    "Street": "Quốc lộ 20",
    "SupportDisability": "",
    "Status": "Đang khai thác",
    "Lng": 108.18253522210784,
    "Lat": 11.631122857997536,
    "Search": "RHD 112 THD",
    "Routes": "01, 139, 152, 45, 56"
  },
  {
    "StopId": 10,
    "Code": "Q1 126",
    "Name": "UBND Xã Đinh Lạc",
    "StopType": "Bến xe",
    "Zone": "Di Linh",
    "Ward": "Đinh lạc",
    "AddressNo": "735",
    "Street": "Quốc lộ 20",
    "SupportDisability": "",
    "Status": "Đang khai thác",
    "Lng": 108.11559109782763,
    "Lat": 11.611682929326806,
    "Search": "RHD 112 THD",
    "Routes": "01, 139, 152, 45, 56"
  },
  {
    "StopId": 10,
    "Code": "Q1 126",
    "Name": "Nhà Thờ Giáo Xứ Di Linh",
    "StopType": "Bến xe",
    "Zone": "Di Linh",
    "Ward": null,
    "AddressNo": "735",
    "Street": "Quốc lộ 20",
    "SupportDisability": "",
    "Status": "Đang khai thác",
    "Lng": 108.07547455084965,
    "Lat": 11.577343462619547,
    "Search": "RHD 112 THD",
    "Routes": "01, 139, 152, 45, 56"
  },
  {
    "StopId": 10,
    "Code": "Q1 126",
    "Name": "Ubnd Xã Liên Đầm",
    "StopType": "Bến xe",
    "Zone": "Di Linh",
    "Ward": "Liên Đầm",
    "AddressNo": "735",
    "Street": "Quốc lộ 20",
    "SupportDisability": "",
    "Status": "Đang khai thác",
    "Lng": 108.02285865380344,
    "Lat": 11.574455917302707,
    "Search": "RHD 112 THD",
    "Routes": "01, 139, 152, 45, 56"
  },
  {
    "StopId": 10,
    "Code": "Q1 126",
    "Name": "BẾN XE ĐINH TRANG HÒA",
    "StopType": "Bến xe",
    "Zone": "Di Linh",
    "Ward": "ĐINH TRANG HÒA",
    "AddressNo": "735",
    "Street": "Quốc lộ 20",
    "SupportDisability": "",
    "Status": "Đang khai thác",
    "Lng": 107.96451654797293,
    "Lat": 11.547731627093459,
    "Search": "RHD 112 THD",
    "Routes": "01, 139, 152, 45, 56"
  },
  {
    "StopId": 10,
    "Code": "Q1 126",
    "Name": "BẾN XE ĐINH TRANG HÒA",
    "StopType": "Bến xe",
    "Zone": "Di Linh",
    "Ward": "ĐINH TRANG HÒA",
    "AddressNo": "735",
    "Street": "Quốc lộ 20",
    "SupportDisability": "",
    "Status": "Đang khai thác",
    "Lng": 107.94732410981752,
    "Lat": 11.53810433415184,
    "Search": "RHD 112 THD",
    "Routes": "01, 139, 152, 45, 56"
  },
  {
    "StopId": 10,
    "Code": "Q1 126",
    "Name": "Cơ Sở Massage Long Hải",
    "StopType": "Bến xe",
    "Zone": "Bảo Lộc",
    "Ward": "Lộc Nga",
    "AddressNo": "735",
    "Street": "Quốc lộ 20",
    "SupportDisability": "",
    "Status": "Đang khai thác",
    "Lng": 107.83916000773529,
    "Lat": 11.52996806580636,
    "Search": "RHD 112 THD",
    "Routes": "01, 139, 152, 45, 56"
  },
  {
    "StopId": 10,
    "Code": "Q1 126",
    "Name": "Bến xe Bảo lộc",
    "StopType": "Bến xe",
    "Zone": "Bảo Lộc",
    "Ward": "Loc Son",
    "AddressNo": "58",
    "Street": "Quốc lộ 20",
    "SupportDisability": "",
    "Status": "Đang khai thác",
    "Lng": 107.80159626786714,
    "Lat": 11.543214664018617,
    "Search": "RHD 112 THD",
    "Routes": "01, 139, 152, 45, 56"
  }
]